timeStamp, OTx, OTy, OTz, vex, vey, vez, roll, pitch, yaw, xr, yr, zr, roll_ref, pitch_ref, thrust
5023, -0.006378889083862305, 0.005548000335693359, 0.5376377254724503, -0.009702218661308696, -0.024443153263837333, -0.007412596221082989, -0.37532249987125393, 0.2377781644463539, -0.24158134460449218, 0.0, 0.0, 0.5023, 0.03121038445471057, 0.4518114575631592, 39370
5034, -0.006471872329711914, 0.0055353641510009766, 0.5369798094034195, -0.0087512118491818, -0.022216820882850954, -0.00823934357230653, -0.4031708121299743, 0.24122247695922852, -0.2278156667947769, 0.0, 0.0, 0.5034, 0.1912348433709303, 0.41175012982555254, 39381
5044, -0.005990743637084961, 0.005204677581787109, 0.5390961319208145, -0.008127586382829398, -0.02016255365826425, -0.0096203725920636, -0.4288457185029983, 0.23846294432878495, -0.21423488855361938, 0.0, 0.0, 0.5044, 0.31528761031385377, 0.35629289572541384, 39364
5055, -0.005644321441650391, 0.00567626953125, 0.5403230935335159, -0.00776409739689128, -0.01817666642540729, -0.010550990707064447, -0.452284637093544, 0.23108511865139011, -0.20057367384433747, 0.0, 0.0, 0.5055, 0.49142143861992166, 0.3317501653195886, 39354
5066, -0.0058307647705078125, 0.005873680114746094, 0.5372200161218643, -0.005892345572971845, -0.01668025985845802, -0.010951672312848416, -0.4669127017259597, 0.23260536342859267, -0.18638940751552582, 0.0, 0.0, 0.5066, 0.607352139522279, 0.2596205548199851, 39389
5076, -0.005405426025390625, 0.005529880523681641, 0.536958709359169, -0.004298513670142325, -0.015772841562486893, -0.011743283741191959, -0.4701326131820678, 0.22919323891401294, -0.1729329138994217, 0.0, 0.0, 0.5075999999999999, 0.6332683672025062, 0.16453911918276748, 39395
5089, -0.004918575286865234, 0.005720853805541992, 0.5373120456933975, -0.0017743741405979424, -0.015870683413008513, -0.013842079419147658, -0.43727727234363556, 0.21354707926511765, -0.1474487528204918, 0.0, 0.0, 0.5089, 0.5810653268592965, 0.045995731466477806, 39404
5099, -0.005181312561035156, 0.00603485107421875, 0.5368308573961258, -0.0021102647288668763, -0.017015168878103348, -0.015596357333238784, -0.3989216789603234, 0.19566448032855988, -0.13515086695551873, 0.0, 0.0, 0.5099, 0.47901497173327834, 0.11933272316070108, 39420
5110, -0.004819393157958984, 0.0061931610107421875, 0.5356946140527725, 0.00032125121067628896, -0.016231841601777403, -0.01817355563994298, -0.3688899055123329, 0.20362215489149094, -0.12287313714623449, 0.0, 0.0, 0.511, 0.47086887998838217, -0.032526037980443845, 39449
5121, -0.004078865051269531, 0.006242513656616211, 0.5358332544565201, 0.004581599169296001, -0.015003640101066805, -0.021528130642287657, -0.3382864624261856, 0.23075750619173047, -0.11031907759606839, 0.0, 0.0, 0.5121000000000001, 0.47405416032327075, -0.3351245706010477, 39470
5132, -0.004073381423950195, 0.006524324417114258, 0.5350793749094009, 0.007259739258137321, -0.015485714335851811, -0.024622447214273768, -0.2943474926054478, 0.24961682707071306, -0.09774820618331433, 0.0, 0.0, 0.5132, 0.38936426594309076, -0.49399319144221515, 39499
5143, -0.004573822021484375, 0.006148815155029297, 0.5357105880975723, 0.01020045224023294, -0.014033632452155304, -0.02802736587035642, -0.2689595527946949, 0.2755808860063553, -0.08612924106419086, 0.0, 0.0, 0.5143, 0.3816962290306086, -0.6413014145059825, 39514
5153, -0.004126071929931641, 0.00674128532409668, 0.5367722064256668, 0.01317247036580784, -0.011623997558636094, -0.03261869696996458, -0.25514782443642614, 0.3044331237673759, -0.07508217263966799, 0.0, 0.0, 0.5153, 0.5130976308297124, -0.8662276363558983, 39533
5164, -0.003946542739868164, 0.0065042972564697266, 0.534098282456398, 0.014321928918676318, -0.009072778737125569, -0.038232909630541816, -0.24619431570172312, 0.31974463462829594, -0.06461126394569874, 0.0, 0.0, 0.5164, 0.5991103766278001, -0.9605731789233666, 39602
5174, -0.0030832290649414062, 0.006821393966674805, 0.5348518043756485, 0.015053647234355507, -0.009124260027322877, -0.044456131348362016, -0.21973282992839813, 0.3282504692673683, -0.05190036864951252, 0.0, 0.0, 0.5174000000000001, 0.5716821942988992, -1.0732958701196798, 39637
5185, -0.0032570362091064453, 0.007232189178466797, 0.5337407737970352, 0.01603015136514866, -0.0066126688422829955, -0.05137592084576846, -0.21467522382736207, 0.33205424249172216, -0.03997430400922894, 0.0, 0.0, 0.5185, 0.7119621310098255, -1.1111031105215499, 39697
5195, -0.0039014816284179688, 0.00719451904296875, 0.5308319479227066, 0.017066354175362803, -0.005259524397249083, -0.05875709127405743, -0.19937966968864201, 0.3264077827334404, -0.02750273244455457, 0.0, 0.0, 0.5195000000000001, 0.7453442983906465, -1.0977230647816534, 39782
5206, -0.0030472278594970703, 0.007306814193725586, 0.5287317782640457, 0.01883971446148013, 4.7796462709434584e-05, -0.06651522870126196, -0.2114914109930396, 0.3162434116005898, -0.017156993318349124, 0.0, 0.0, 0.5206000000000001, 1.0264354805641536, -1.2208011740548994, 39860
5217, -0.0028619766235351562, 0.0072519779205322266, 0.5270239859819412, 0.018731122587100524, 0.001982753923731792, -0.07457666068641644, -0.18955531250685453, 0.2792149640619755, -0.005862587783485651, 0.0, 0.0, 0.5216999999999999, 1.0722331611850715, -1.154491633565091, 39935
5227, -0.0027403831481933594, 0.007473468780517578, 0.5256866961717606, 0.015199147496395716, 0.0021919061059809007, -0.08274930414827256, -0.14393623154610394, 0.20288599058985712, 0.00511090187355876, 0.0, 0.0, 0.5227, 1.0121474500353373, -0.8478893573240255, 40008
5239, -0.002622365951538086, 0.0077457427978515625, 0.524449422955513, 0.010034523870179082, 0.005695444414793574, -0.0988224377787503, -0.04619601275771856, 0.04276853427290917, 0.026203167717903854, 0.0, 0.0, 0.5239, 1.0045111938809776, -0.2998046129340643, 40135
5250, -0.0024099349975585938, 0.007512807846069336, 0.5259053856134415, 0.008974135348183237, 0.004969476073360335, -0.10694547255961268, 0.03615085873752833, -0.027141747623682027, 0.03751435661688447, 0.0, 0.0, 0.525, 0.7949275243795997, -0.1267402069003275, 40176
5260, -0.0021669864654541016, 0.00806117057800293, 0.5205129534006119, 0.008267477573162272, 0.003926519905642398, -0.11530074355902864, 0.1253110298886895, -0.08937886282801628, 0.048468241374939686, 0.0, 0.0, 0.526, 0.6153876184213707, 0.012418005264674691, 40295
5271, -0.0011484622955322266, 0.008023500442504883, 0.5199998766183853, 0.007563314189252189, 0.0054959122371872485, -0.1237763400795413, 0.1927930684760213, -0.14069875702261925, 0.05705653242766857, 0.0, 0.0, 0.5271, 0.5557922764743353, 0.07182654500835914, 40361
5281, -0.0012285709381103516, 0.008147478103637695, 0.5173807293176651, 0.007096555448966038, 0.004620747262191586, -0.13089971486464722, 0.275241750665009, -0.17508821263909338, 0.06620117388665676, 0.0, 0.0, 0.5281, 0.3659172081036431, 0.16812151010781895, 40441
5292, -0.001150369644165039, 0.008435249328613281, 0.5165802389383316, 0.006033043750156361, 0.006140096231259791, -0.1380241475038941, 0.32780510410666464, -0.19772753193974496, 0.07357633598148823, 0.0, 0.0, 0.5292, 0.35790863595027667, 0.25686808273340006, 40501
5302, -0.0012371540069580078, 0.008066654205322266, 0.51372130215168, 0.006179979728146149, 0.004263788381108483, -0.1452302083691139, 0.3919535018503666, -0.1938578225672245, 0.08282069899141788, 0.0, 0.0, 0.5302, 0.12164958339684076, 0.24956140802506574, 40584
5313, -0.0008356571197509766, 0.008063316345214844, 0.5128610283136368, 0.0074894645238716495, 0.0046748270483137205, -0.15241619259622421, 0.4172236502170563, -0.16393797546625136, 0.08981230482459068, 0.0, 0.0, 0.5313, 0.09488722569497243, 0.10067673241654103, 40645
5323, -0.0004980564117431641, 0.008312463760375977, 0.509462907910347, 0.009722045266109732, 0.006505456412018301, -0.15955261955704714, 0.4090473502874374, -0.11264006197452546, 0.0952100858092308, 0.0, 0.0, 0.5323000000000001, 0.2186626103477879, -0.1285773153142357, 40733
5334, -0.0003800392150878906, 0.008868217468261719, 0.5062898546457291, 0.01163391418063249, 0.00698040357105394, -0.1672766878052047, 0.39420699328184133, -0.05616364181041718, 0.09995338544249535, 0.0, 0.0, 0.5334, 0.3161838873133124, -0.3371252427281317, 40824
5344, 0.0002446174621582031, 0.009401082992553711, 0.506581500172615, 0.01373870624905835, 0.007000036026220405, -0.17479013531865045, 0.36615292876958844, 0.005362418293952939, 0.10370323881506921, 0.0, 0.0, 0.5344000000000001, 0.4175184294118874, -0.6024357790027998, 40875
5355, 0.00015997886657714844, 0.008752107620239258, 0.50163634121418, 0.014047457996824416, 0.007714656942739273, -0.18208542816929313, 0.3213375572115183, 0.04998864084482193, 0.10606145858764648, 0.0, 0.0, 0.5355000000000001, 0.49623337460243705, -0.6989266063480041, 40982
5365, 0.0004742145538330078, 0.008694171905517578, 0.49894221127033234, 0.013922544612087957, 0.008729353494550434, -0.1892453957292001, 0.2686480991076678, 0.08419488742947577, 0.1072575218975544, 0.0, 0.0, 0.5365000000000001, 0.6481034168918267, -0.7844914934297026, 41064
5376, 0.0008022785186767578, 0.009161949157714844, 0.49509473145008087, 0.013931982777472004, 0.008790266198142056, -0.19622627914880572, 0.2220208256971091, 0.11425938121974467, 0.10831094831228257, 0.0, 0.0, 0.5376000000000001, 0.7831914882008161, -0.869251954787612, 41157
5386, 0.0009267330169677734, 0.008661270141601562, 0.49670566618442535, 0.013033512497494525, 0.00908751146213297, -0.2024391090508062, 0.17765001649968326, 0.1238639511168003, 0.10794471129775048, 0.0, 0.0, 0.5386000000000001, 0.8527169967241156, -0.8566235606619138, 41186
5397, 0.00081634521484375, 0.009230852127075195, 0.4909272938966751, 0.011243361827884844, 0.0076833607636074336, -0.20865159560902827, 0.1605080037843436, 0.11082601919770241, 0.10644961297512055, 0.0, 0.0, 0.5397000000000001, 0.8694321848100447, -0.7405822121487248, 41295
5408, 0.0012958049774169922, 0.008921146392822266, 0.4881465584039688, 0.0053931221837751455, 0.002846675591352759, -0.22052718932107235, 0.20182143743149936, 0.021095816045999524, 0.0994341194629669, 0.0, 0.0, 0.5408000000000001, 0.5468446786787606, -0.32939036553021084, 41410
5419, 0.0014336109161376953, 0.009117603302001953, 0.4848199039697647, 0.0018666429343014417, -0.0010652018680378146, -0.22626053282995243, 0.268548873020336, -0.044903036206960685, 0.09364177882671355, 0.0, 0.0, 0.5418999999999999, 0.25409824275503606, -0.04710438438790425, 41489
5430, 0.0015289783477783203, 0.009180784225463867, 0.4815038591623306, -0.0007847703243076031, -0.004695496818296218, -0.23079819120849762, 0.3481909319292754, -0.10744370743632316, 0.08590580113232135, 0.0, 0.0, 0.543, -0.06109469541015091, 0.19108792733137267, 41561
5440, 0.001546621322631836, 0.008556365966796875, 0.4799460917711258, 0.004717670661877365, -0.007741393641029386, -0.23512473594756889, 0.43288822914473707, -0.09010829254984855, 0.07109478041529654, 0.0, 0.0, 0.544, -0.41063469023817234, -0.09903970089016474, 41612
5451, 0.0022280216217041016, 0.008937835693359375, 0.4758410006761551, 0.010332516686875463, -0.011302576574935087, -0.23936175821038796, 0.5242576714139431, -0.06796882525086402, 0.054248500242829324, 0.0, 0.0, 0.5451, -0.7224588745864072, -0.45339661040334506, 41690
5462, 0.002244710922241211, 0.008828878402709961, 0.4726984053850174, 0.016226076462796918, -0.013970234815780847, -0.24338080292584097, 0.5999362535774708, -0.034556834399700156, 0.035164613649249075, 0.0, 0.0, 0.5462, -0.9983791018412982, -0.793737505498266, 41757
5473, 0.0023479461669921875, 0.008964776992797852, 0.46960659325122833, 0.022397041323874406, -0.016120331007128348, -0.24715069505214718, 0.6598331898450851, 0.006511650606989866, 0.013474250212311745, 0.0, 0.0, 0.5473, -1.200968008753269, -1.168501833009277, 41821
5483, 0.0024509429931640625, 0.008513450622558594, 0.4657043367624283, 0.027840291500499752, -0.01811748269867355, -0.252730287939224, 0.699629831314087, 0.04948914200067522, -0.00865403451025486, 0.0, 0.0, 0.5483, -1.4004067935003555, -1.5135536653282569, 41907
5494, 0.0028319358825683594, 0.008643388748168945, 0.4624432474374771, 0.0330752965280557, -0.019109749352570767, -0.25795279536025195, 0.7048712611198424, 0.0972677618265152, -0.03248121105134487, 0.0, 0.0, 0.5494, -1.4419509705331452, -1.8793214255163038, 41984
5505, 0.003175497055053711, 0.008967399597167969, 0.4593939930200577, 0.04000435709197705, -0.0192165161836571, -0.26288551866726567, 0.6745123296976089, 0.16340430676937104, -0.06005534939467907, 0.0, 0.0, 0.5505, -1.3575841473589965, -2.35696602393336, 42056
5515, 0.0035619735717773438, 0.009234905242919922, 0.4551609307527542, 0.045756878374866354, -0.018245872328611114, -0.2675040633978846, 0.6083099130948539, 0.21319180130958557, -0.08850422464311122, 0.0, 0.0, 0.5515, -1.1565630895506316, -2.751388914819625, 42140
5526, 0.0030307769775390625, 0.008568525314331055, 0.4512444883584976, 0.05235642836786943, -0.01834115998053705, -0.271756679117981, 0.5350301143189427, 0.25898794606328013, -0.11928442753851412, 0.0, 0.0, 0.5526, -1.0601585210351372, -3.108697350531479, 42217
5536, 0.0034623146057128906, 0.008744478225708008, 0.44785429537296295, 0.05689829544608205, -0.017736022851247174, -0.27735792074606397, 0.44639641953981485, 0.26660635545849803, -0.14959240555763242, 0.0, 0.0, 0.5536, -0.8385884333596422, -3.3670389074997638, 42299
5547, 0.0029065608978271484, 0.008959531784057617, 0.4443212300539017, 0.05324836941982281, -0.017866785147682092, -0.2828576566788041, 0.36756206391728485, 0.16905359104275702, -0.1760955851525068, 0.0, 0.0, 0.5547, -0.6673340466634191, -2.9660324597893157, 42381
5559, 0.003412961959838867, 0.008655071258544922, 0.4417627602815628, 0.042397155705423475, -0.01906662422942329, -0.2927095049116696, 0.2642595225421246, -0.14258693382143975, -0.23349547833204268, 0.0, 0.0, 0.5559000000000001, -0.5354940423849641, -1.887815478181257, 42483
5570, 0.0031714439392089844, 0.008199453353881836, 0.4372902065515518, 0.03713161477728233, -0.020723496997570135, -0.29744323195634076, 0.26127207814133724, -0.3390525244176387, -0.2673456013202667, 0.0, 0.0, 0.557, -0.6349630546071195, -1.2397515349873616, 42570
5580, 0.0039861202239990234, 0.008489608764648438, 0.43431930243968964, 0.03501573528855458, -0.02350265999520166, -0.3027871140702252, 0.30148258744156925, -0.5277437590062618, -0.30756793469190596, 0.0, 0.0, 0.558, -0.8163824708838738, -0.8309047644368457, 42646
5591, 0.003849506378173828, 0.008196353912353516, 0.4314112812280655, 0.03345111312511294, -0.026312533987259926, -0.3077950095999013, 0.37478184936917386, -0.7248241804540158, -0.35071015805006023, 0.0, 0.0, 0.5591, -1.1081477260183736, -0.36033498821820487, 42720
5601, 0.003164052963256836, 0.007847309112548828, 0.42653392255306244, 0.03239544898544915, -0.029289365535137002, -0.3122545916470585, 0.4784366750565824, -0.918805756419897, -0.3957442656159401, 0.0, 0.0, 0.5601, -1.4720932649782277, 0.12166201688125677, 42810
5612, 0.003270387649536133, 0.0076847076416015625, 0.4224877804517746, 0.03245158794424049, -0.03229125220193937, -0.3164779950042997, 0.6006552149541676, -1.0916882894933222, -0.4435976654291153, 0.0, 0.0, 0.5612, -1.8602719544501811, 0.45193156206814095, 42891
5623, 0.0036711692810058594, 0.007709026336669922, 0.41955049335956573, 0.030413968506247932, -0.032916208318833365, -0.3205661482758905, 0.7027841147966684, -1.2638523310422898, -0.4909386903047561, 0.0, 0.0, 0.5623, -2.0852455385250663, 0.855241004758324, 42959
5634, 0.002910614013671875, 0.0076084136962890625, 0.4144512563943863, 0.030011762913191475, -0.032776829789940835, -0.3237523071406307, 0.7861290417611598, -1.3875169932842253, -0.540982449054718, 0.0, 0.0, 0.5634, -2.247076599675283, 1.1734806991389877, 43044
5645, 0.0022263526916503906, 0.007443666458129883, 0.41214700043201447, 0.02890265812995721, -0.03431709392597001, -0.3263789030353379, 0.8614831060171128, -1.4763749480247497, -0.5979413449764253, 0.0, 0.0, 0.5645, -2.4753212693965096, 1.4500653117423439, 43097
5655, 0.002954721450805664, 0.007498741149902344, 0.4076239615678787, 0.030252971209593825, -0.03458829314004935, -0.32868525568113655, 0.8879343032836914, -1.4975176095962524, -0.6574638456106187, 0.0, 0.0, 0.5655, -2.5318644127337113, 1.3741197088220571, 43171
5666, 0.0023021697998046875, 0.007457733154296875, 0.40280766785144806, 0.030736692814075837, -0.03198377105345409, -0.33084393503526527, 0.8404505699872972, -1.48577481508255, -0.7135201692581176, 0.0, 0.0, 0.5666000000000001, -2.3164982624941577, 1.3755462865995272, 43247
5678, 0.001556396484375, 0.0077321529388427734, 0.39960671961307526, 0.02808046940924158, -0.027319529556500508, -0.3327919084557037, 0.6075389504432679, -1.3894090294837953, -0.8349485814571381, 0.0, 0.0, 0.5678, -1.6152369860520306, 1.3613087469395695, 43305
5688, 0.0018985271453857422, 0.007334470748901367, 0.3967769891023636, 0.024698692495852076, -0.02813867653554788, -0.3328241338387387, 0.4566631108522415, -1.3247930526733398, -0.9055174469947814, 0.0, 0.0, 0.5688, -1.379234240828604, 1.3626930563066024, 43347
5699, 0.0012617111206054688, 0.00718379020690918, 0.39101438224315643, 0.019269875963707536, -0.029052185980216343, -0.3329475699314679, 0.27437795698642736, -1.2705023050308228, -0.9763431549072265, 0.0, 0.0, 0.5699, -1.0671367828715475, 1.5517143626492944, 43421
5710, 0.0003097057342529297, 0.007227420806884766, 0.38950006663799286, 0.013734677547339634, -0.030220862183628735, -0.33283315013038817, 0.07565192282199859, -1.2180631279945373, -1.0496555745601654, 0.0, 0.0, 0.5710000000000001, -0.7198077620823243, 1.7731867303199131, 43449
5720, 0.0009388923645019531, 0.0068395137786865234, 0.3874333053827286, 0.010019228511141603, -0.03170156808177061, -0.3325226015193643, -0.1236320286989212, -1.1564709067344665, -1.1267429709434509, 0.0, 0.0, 0.572, -0.4179223837488368, 1.7752394918712322, 43482
5731, -0.00017213821411132812, 0.006801128387451172, 0.3809669464826584, 0.006324562121123556, -0.0349182128012528, -0.3328336660338465, -0.2947097927331924, -1.1100012183189392, -1.2093319594860077, 0.0, 0.0, 0.5731, -0.2260813296392496, 1.9357689911266367, 43565
5742, -3.814697265625e-06, 0.007138729095458984, 0.37697432935237885, 0.0044101040299797285, -0.03572431191599167, -0.3330899563806231, -0.4677128344774247, -1.0639299392700194, -1.290016597509384, 0.0, 0.0, 0.5742, 0.10869372474581987, 1.9202386599720236, 43622
5752, -0.001008749008178711, 0.007134437561035156, 0.3725864738225937, 0.0015547914444065504, -0.037572499111537525, -0.33325359376574293, -0.599375519156456, -1.0423740863800048, -1.3732343316078186, 0.0, 0.0, 0.5752, 0.28820637377703706, 2.084083174735263, 43683
5763, -0.0017766952514648438, 0.0077648162841796875, 0.37029092013835907, 0.0002363549056506051, -0.04124546272409722, -0.33301798544605593, -0.6769287645816803, -1.012705910205841, -1.462384408712387, 0.0, 0.0, 0.5763, 0.32374085920686496, 2.143919654237862, 43720
5773, -0.0011348724365234375, 0.006975650787353516, 0.3658653646707535, -0.0004872558242529478, -0.04549091498175186, -0.33256346658208, -0.7123855888843535, -0.9799404501914978, -1.553567135334015, 0.0, 0.0, 0.5773, 0.14392723701063587, 2.0654715636636833, 43778
5783, -0.0023810863494873047, 0.006751060485839844, 0.3624100238084793, 0.0005673221608327233, -0.04404725794789333, -0.3333625285110417, -0.775684830546379, -0.9239142477512359, -1.6322237491607665, 0.0, 0.0, 0.5783, 0.323140658199986, 1.9994658519464619, 43835
5793, -0.001806497573852539, 0.007576942443847656, 0.3586531728506088, 0.0012835548854287344, -0.04047050524663379, -0.3341481229098448, -0.8357894122600554, -0.8595551371574401, -1.7080695033073428, 0.0, 0.0, 0.5793, 0.6725679496952363, 1.797414977198321, 43894
5804, -0.002414703369140625, 0.008046150207519531, 0.3580479174852371, 0.0026381450437471463, -0.03680473854571574, -0.3350200928943038, -0.880512124300003, -0.7714036568999291, -1.784489119052887, 0.0, 0.0, 0.5804, 0.9694791110653015, 1.606707292115434, 43923
5814, -0.003148794174194336, 0.007824182510375977, 0.352670356631279, 0.005222173688643814, -0.03270236137271144, -0.3358107114480435, -0.9216802895069123, -0.6490726426243781, -1.8603447794914243, 0.0, 0.0, 0.5814, 1.2281721411538604, 1.3013466980598223, 43999
5824, -0.0037899017333984375, 0.007874011993408203, 0.34997402131557465, 0.0065817070763720485, -0.029375807720191625, -0.33600440111646884, -0.9527858495712281, -0.518711657822132, -1.9390785455703734, 0.0, 0.0, 0.5824, 1.4513198623218213, 1.0299879972368038, 44045
5834, -0.002849578857421875, 0.007926702499389648, 0.3496221452951431, 0.008696026901800135, -0.02678078752813178, -0.33509604787774877, -0.9789499044418335, -0.3622298642992973, -2.0175317406654356, 0.0, 0.0, 0.5834, 1.6312040215266235, 0.5544677682298065, 44060
5844, -0.0038123130798339844, 0.008617162704467773, 0.34522645175457, 0.01016575026077381, -0.029229202434844805, -0.33385719580337386, -0.9570419490337371, -0.19781446307897568, -2.1004085779190067, 0.0, 0.0, 0.5844, 1.53100546127606, 0.23436813849494983, 44114
5854, -0.004575252532958984, 0.008718252182006836, 0.3392166644334793, 0.01214448918926243, -0.03164439662895082, -0.33261495994107465, -0.9392942607402802, -0.023752163350582105, -2.1834083199501038, 0.0, 0.0, 0.5854, 1.3970087080551956, -0.14266076961274357, 44185
5865, -0.005790233612060547, 0.009004831314086914, 0.33593855798244476, 0.013619821363329121, -0.03410278475872647, -0.3312974278290291, -0.9199110984802246, 0.1404407873749733, -2.2665584802627565, 0.0, 0.0, 0.5865, 1.2716764465828303, -0.4427707738755665, 44228
5875, -0.0054416656494140625, 0.009469270706176758, 0.3335482031106949, 0.015005422182628167, -0.03486445584964359, -0.32946214496644555, -0.9138934314250947, 0.2925482884049415, -2.350199794769287, 0.0, 0.0, 0.5875, 1.2644576204131088, -0.8307460125275141, 44259
5885, -0.005662202835083008, 0.009918689727783203, 0.3291385620832443, 0.015238128507558582, -0.03642704070005371, -0.32677852323134204, -0.8878473222255706, 0.41546160727739334, -2.435083603858948, 0.0, 0.0, 0.5885, 1.1797834661151685, -1.0654778294274156, 44305
5895, -0.006140947341918945, 0.009908437728881836, 0.32759474217891693, 0.015631953309626415, -0.03961436345459719, -0.3233234506953498, -0.8294212430715561, 0.5189584925770759, -2.5225885629653932, 0.0, 0.0, 0.5895, 0.9220295168418786, -1.249767583945177, 44318
5905, -0.006197214126586914, 0.010155677795410156, 0.3236330896615982, 0.015323228202155518, -0.04299994571535475, -0.31937895764226637, -0.7512664943933487, 0.5910889029502868, -2.611244297027588, 0.0, 0.0, 0.5905, 0.6352462506547857, -1.3707650328918308, 44352
5916, -0.006559133529663086, 0.011164665222167969, 0.32084648311138153, 0.013696057512387137, -0.04719870043351285, -0.3152389702158839, -0.6444809891283513, 0.6234355062246323, -2.7014654159545897, 0.0, 0.0, 0.5916, 0.3112207144639736, -1.3293266236440824, 44374
5926, -0.0074520111083984375, 0.011495590209960938, 0.3182617574930191, 0.008876534562494251, -0.051773446334921085, -0.3054412563154333, -0.41484641283750534, 0.5964466668665409, -2.8831006050109864, 0.0, 0.0, 0.5926, -0.05599000252248276, -1.2206191524174863, 44395
5936, -0.008020162582397461, 0.011970281600952148, 0.31415264308452606, 0.008213137212828615, -0.049678831181432216, -0.29963675555941255, -0.3256381362676621, 0.5679905541241169, -2.9642431020736693, 0.0, 0.0, 0.5936, -0.36184471270947305, -0.8497430268153122, 44382
5946, -0.007980108261108398, 0.011527061462402344, 0.31254811584949493, 0.008213137212828615, -0.049678831181432216, -0.29963675555941255, -0.3256381362676621, 0.5679905541241169, -2.9642431020736693, 0.0, 0.0, 0.5946, -0.38805209238496197, -0.848136011230619, 44419
5957, -0.008265018463134766, 0.012181282043457031, 0.30889709293842316, 0.008923302780382218, -0.044547687602723846, -0.28765791792521056, -0.14432792514562606, 0.4814983136951923, -3.1251100063323975, 0.0, 0.0, 0.5957, -0.4554737729357651, -0.6836343030954194, 44400
5967, -0.008074283599853516, 0.01271820068359375, 0.30582858622074127, 0.008197609017471, -0.044413126898030016, -0.28201659826872394, -0.034624536335468296, 0.40981702879071236, -3.2062584638595584, 0.0, 0.0, 0.5967, -0.619637034709844, -0.5176331864434144, 44416
5977, -0.009692907333374023, 0.013119220733642578, 0.3039025515317917, 0.006365248991427714, -0.04323293051052137, -0.2765531320675038, 0.051554463803768165, 0.317243953794241, -3.2882518291473386, 0.0, 0.0, 0.5977, -0.6988243143242826, -0.12435411769896156, 44422
5987, -0.008890390396118164, 0.013560056686401367, 0.30096782743930817, 0.005140416012621076, -0.04108716886375854, -0.2718128525309554, 0.10909003764390945, 0.22336694523692133, -3.368878102302551, 0.0, 0.0, 0.5987, -0.6735501671405453, 0.06381233998183955, 44443
5997, -0.009601116180419922, 0.013961553573608398, 0.2965819984674454, 0.0038919740127367937, -0.038563806809446224, -0.2673868370088008, 0.1424852628260851, 0.1246615044772625, -3.448559212684631, 0.0, 0.0, 0.5997, -0.5857173484664094, 0.37506900671609583, 44481
6008, -0.009142398834228516, 0.014429807662963867, 0.2945231646299362, 0.004171682490216942, -0.036524873350860895, -0.26296516989673174, 0.1565601397305727, 0.041465496271848666, -3.525556826591492, 0.0, 0.0, 0.6008, -0.4767119219202298, 0.4983277220521036, 44496
6018, -0.010488748550415039, 0.015477657318115234, 0.2916165441274643, 0.004790355193515994, -0.03425732292339797, -0.2586270183726185, 0.1451201958581805, -0.035186368972063065, -3.6005909681320194, 0.0, 0.0, 0.6018, -0.26309946902202247, 0.7273983835983862, 44521
6028, -0.010277032852172852, 0.015442371368408203, 0.29306410253047943, 0.007167252568399267, -0.0326937065548848, -0.25749757908040344, 0.11979850940406322, -0.08558823615312576, -3.6709563255310056, 0.0, 0.0, 0.6028, -0.13462398964886765, 0.7079549398922755, 44522
6038, -0.011957406997680664, 0.016031265258789062, 0.28696490824222565, 0.00675149860412002, -0.028961311201616515, -0.2564980916473252, 0.0570485319942236, -0.1555673822760582, -3.7462347507476808, 0.0, 0.0, 0.6038000000000001, 0.21451811607639432, 0.9970436326001434, 44599
6048, -0.01152181625366211, 0.01671624183654785, 0.2846185117959976, 0.005026309767106208, -0.025629048736943275, -0.2555428862732778, -0.013921781256794923, -0.22356173843145372, -3.821349906921386, 0.0, 0.0, 0.6048, 0.569015807784726, 1.1856488034350163, 44640
6058, -0.012345552444458008, 0.017372608184814453, 0.2813148647546768, 0.004298718996300414, -0.023058420067348723, -0.2542839238597376, -0.08690589852631092, -0.26484395265579225, -3.8939886093139644, 0.0, 0.0, 0.6058, 0.8906621823503786, 1.369044552827673, 44689
6069, -0.012587308883666992, 0.01818704605102539, 0.2803264409303665, 0.00454341582160946, -0.020024288734702553, -0.2524695321548926, -0.16883192546665668, -0.2792863592505455, -3.9646038055419925, 0.0, 0.0, 0.6069, 1.26355824684741, 1.4114976431161694, 44711
6079, -0.012730598449707031, 0.018715381622314453, 0.2781447619199753, 0.006411346622076162, -0.017627138284115926, -0.2497415318238422, -0.24366878457367422, -0.2596004705876112, -4.0319277286529545, 0.0, 0.0, 0.6079, 1.5721725612496298, 1.3043037492623097, 44740
6089, -0.012068510055541992, 0.018456697463989258, 0.2788683921098709, 0.007740395695150162, -0.014499194292779415, -0.24646225772281638, -0.31972428746521475, -0.22850915230810642, -4.097773027420043, 0.0, 0.0, 0.6089000000000001, 1.8584688694458762, 1.1393401128923717, 44736
6099, -0.014109373092651367, 0.01872539520263672, 0.2728898972272873, 0.010597135565500298, -0.01240507036821261, -0.24298700466036033, -0.37686659917235377, -0.16387201584875585, -4.160619616508484, 0.0, 0.0, 0.6099000000000001, 2.0988372700087385, 1.0387651293792037, 44798
6109, -0.013194561004638672, 0.019688129425048828, 0.27121807634830475, 0.011386145238872046, -0.009759953135145933, -0.23928454811042862, -0.42546768933534623, -0.1043685529381037, -4.223636794090272, 0.0, 0.0, 0.6109, 2.399603778905023, 0.8243206868532726, 44816
6119, -0.014319181442260742, 0.02045273780822754, 0.2673863619565964, 0.014116635388521455, -0.008349884069313238, -0.2352422070064201, -0.4473493486642838, -0.008707231655716902, -4.283089971542358, 0.0, 0.0, 0.6119, 2.5762733284860566, 0.6003732362797628, 44853
6129, -0.014435768127441406, 0.021255016326904297, 0.2655584365129471, 0.016544545669787015, -0.007955146577377944, -0.22955921358318795, -0.4430417492985726, 0.09533988200128078, -4.340384387969971, 0.0, 0.0, 0.6129, 2.6574999954059306, 0.299193434660982, 44861
6139, -0.015447139739990234, 0.02142643928527832, 0.26482535898685455, 0.0182574088905945, -0.008305751768749498, -0.22387601663123968, -0.4148917496204376, 0.20170326195657254, -4.395309162139893, 0.0, 0.0, 0.6139000000000001, 2.610524202356536, 0.09319766203025441, 44858
6150, -0.01516103744506836, 0.02211284637451172, 0.2618247717618942, 0.0171985045673288, -0.00926406228017382, -0.2183180571287937, -0.3639266777783633, 0.28345698677003384, -4.44856743812561, 0.0, 0.0, 0.6150000000000001, 2.528847256514022, -0.03250807588953472, 44878
6160, -0.01561427116394043, 0.022449016571044922, 0.2593776136636734, 0.018383353517793254, -0.010392875828554088, -0.21326626781300623, -0.2995736498385668, 0.3902662169188261, -4.497877883911133, 0.0, 0.0, 0.6160000000000001, 2.3870459459914843, -0.256277279726154, 44896
6170, -0.01616668701171875, 0.02359938621520996, 0.256696417927742, 0.020644112486593983, -0.012940549695793536, -0.20996817984479604, -0.20978282280266286, 0.5082073327153921, -4.54322624206543, 0.0, 0.0, 0.617, 2.190380636587338, -0.544031222688254, 44928
6180, -0.01631617546081543, 0.024402618408203125, 0.2552899271249771, 0.02262407612991151, -0.013776611283208043, -0.2068881800484533, -0.12619501836597918, 0.6182404674589634, -4.5900926113128655, 0.0, 0.0, 0.618, 2.0596494541716517, -0.8329166752046443, 44949
6190, -0.01648116111755371, 0.024643421173095703, 0.2539703696966171, 0.02085024744234476, -0.012016771759231971, -0.20297936071766712, -0.056957109645009045, 0.6811957508325577, -4.641435194015503, 0.0, 0.0, 0.6190000000000001, 2.035489366088484, -0.8542711694259911, 44964
6200, -0.017007827758789062, 0.025298357009887695, 0.25170864164829254, 0.022847407908358038, -0.011318630976332423, -0.19881687505218232, 0.02751671187579631, 0.7755726963281632, -4.689458847045898, 0.0, 0.0, 0.6200000000000001, 1.963241269927807, -1.0846041053937794, 44987
6211, -0.01714181900024414, 0.025664091110229492, 0.2494862824678421, 0.020837078274987916, -0.00794240356700963, -0.1935946206529404, 0.09520336501300333, 0.815091896057129, -4.737775611877442, 0.0, 0.0, 0.6211000000000001, 2.0264805919262607, -1.0505319374642217, 45003
6221, -0.01764535903930664, 0.026713132858276367, 0.24740295112133026, 0.016344934056929085, -0.002056898940342327, -0.18839440663124504, 0.14322210662066934, 0.8139076054096221, -4.788708496093751, 0.0, 0.0, 0.6221000000000001, 2.2955235510821694, -0.7937757374145094, 45018
6231, -0.01776432991027832, 0.02693963050842285, 0.24835051596164703, 0.011992481768225956, 0.003847335922534772, -0.18405817167634494, 0.19162119291722773, 0.7988239526748657, -4.836014223098755, 0.0, 0.0, 0.6231, 2.5039122210045135, -0.5443145779794505, 45009
6241, -0.01903986930847168, 0.027655601501464844, 0.24511615931987762, 0.00797574469297696, 0.00896065114362732, -0.1792403178700957, 0.2475080203264952, 0.7701384663581847, -4.878387260437012, 0.0, 0.0, 0.6241, 2.697658889981146, -0.19701769004638997, 45038
6251, -0.018970966339111328, 0.02766895294189453, 0.24408812820911407, 0.006549903035543499, 0.0139198956396276, -0.1741123250169876, 0.30272299647331236, 0.7534355223178864, -4.915873670578003, 0.0, 0.0, 0.6251000000000001, 2.8336288047425087, -0.09243837866368558, 45043
6261, -0.018451929092407227, 0.028603076934814453, 0.24129147827625275, 0.0026529753187925767, 0.01840425899685984, -0.16874250967285603, 0.3650151759386063, 0.6998906433582306, -4.95051589012146, 0.0, 0.0, 0.6261000000000001, 3.002389390452227, 0.16541045580555175, 45065
6271, -0.018677949905395508, 0.029085636138916016, 0.23934932053089142, -0.0030878469415251074, 0.023062020010397352, -0.16348024922221488, 0.4278693705797196, 0.6191676825284957, -4.981825304031372, 0.0, 0.0, 0.6271, 3.1448741359483905, 0.6173813960303017, 45079
6282, -0.018288373947143555, 0.02978348731994629, 0.23884110152721405, -0.009453797960946574, 0.0279074399575535, -0.1580612179532864, 0.49035924971103667, 0.5295225948095321, -5.0102445602416985, 0.0, 0.0, 0.6282000000000001, 3.313067222434242, 1.0700463514744427, 45079
6292, -0.018953323364257812, 0.030148029327392578, 0.2369581013917923, -0.010808164113647252, 0.028942108181505128, -0.1534143492478784, 0.586930924654007, 0.4976495653390884, -5.030010938644409, 0.0, 0.0, 0.6292, 3.2136342892330063, 1.255711860526293, 45096
6302, -0.019230127334594727, 0.03018951416015625, 0.23571465909481049, -0.015877257786321857, 0.03165042099798623, -0.14899386845137913, 0.6678295284509659, 0.435219869017601, -5.052283239364624, 0.0, 0.0, 0.6302, 3.198498824444988, 1.6445499817107283, 45109
6312, -0.01935100555419922, 0.030229806900024414, 0.23577074706554413, -0.014637144961483873, 0.032293117112374516, -0.1459122284056839, 0.7595769822597505, 0.4546998113393783, -5.071407079696655, 0.0, 0.0, 0.6312000000000001, 3.0666043857824694, 1.5688314788414113, 45118
6322, -0.018837451934814453, 0.030908584594726562, 0.2343095988035202, -0.012757395664492247, 0.032913731247672606, -0.1429870997692879, 0.8448596090078354, 0.49929788410663606, -5.087172651290894, 0.0, 0.0, 0.6322000000000001, 2.9941600889104625, 1.3665966777967369, 45143
6332, -0.01973128318786621, 0.031945228576660156, 0.23320667445659637, -0.010824330507679532, 0.03301174284939717, -0.1394620407358636, 0.929109799861908, 0.5678983122110367, -5.099557161331178, 0.0, 0.0, 0.6332, 2.9267645300867846, 1.2190409823076194, 45161
6343, -0.02023482322692871, 0.031555891036987305, 0.22989605367183685, -0.007613444510180466, 0.0334448956185103, -0.13584819805341986, 1.000026774406433, 0.6750437229871751, -5.112357139587402, 0.0, 0.0, 0.6343000000000001, 2.7954470909358387, 0.907606636060875, 45200
6353, -0.01934528350830078, 0.03182482719421387, 0.23020042479038239, -0.004760056203018052, 0.03446421540679362, -0.13209046105633385, 1.0540272772312165, 0.7998406797647477, -5.1221758842468255, 0.0, 0.0, 0.6353, 2.7735533825302747, 0.47402713759299436, 45203
6363, -0.01956653594970703, 0.03222346305847168, 0.22855593264102936, -0.0017909860395395392, 0.03600178506899836, -0.12847738827751098, 1.0890595853328704, 0.9437457114458083, -5.129804849624634, 0.0, 0.0, 0.6363000000000001, 2.8229629442827693, 0.07960929265230746, 45225
6373, -0.01986408233642578, 0.03258323669433594, 0.22647081315517426, 0.0007922251730829318, 0.03819938208687075, -0.12323799120519793, 1.1029589235782622, 1.096094810962677, -5.133863735198975, 0.0, 0.0, 0.6373000000000001, 2.941998558932072, -0.30794122040200156, 45243
6383, -0.019953489303588867, 0.03239870071411133, 0.2262088507413864, 0.0036689238237856006, 0.0381042965011765, -0.1180623503380835, 1.1233938872814178, 1.257526457309723, -5.1302355289459225, 0.0, 0.0, 0.6383000000000001, 2.9020221569287683, -0.742373619572723, 45243
6393, -0.019446849822998047, 0.032541751861572266, 0.224742129445076, 0.006476338526328911, 0.03797996389989955, -0.11307409206524528, 1.1293925344944, 1.4138758480548859, -5.123378896713256, 0.0, 0.0, 0.6393, 2.9136399173811736, -1.2079575268365694, 45256
6403, -0.01995086669921875, 0.03295493125915527, 0.22312380373477936, 0.008633210047423082, 0.036771626322188944, -0.10784658078374758, 1.1345155537128448, 1.5510945320129395, -5.109142208099365, 0.0, 0.0, 0.6403, 2.897270741059388, -1.5305411150305102, 45269
6414, -0.019616127014160156, 0.03349423408508301, 0.22066645324230194, 0.009158837986650506, 0.03434662974591702, -0.10224064614266633, 1.1472321689128875, 1.6512190103530884, -5.084705400466919, 0.0, 0.0, 0.6414, 2.819429190790439, -1.7667240327676148, 45289
6424, -0.01968860626220703, 0.03273463249206543, 0.22451479732990265, 0.010674121745427107, 0.02894656799495745, -0.09652992505929796, 1.1888436555862427, 1.7374447107315063, -5.053829908370971, 0.0, 0.0, 0.6424000000000001, 2.450625667186275, -1.9907839955813162, 45245
6434, -0.01963639259338379, 0.03218245506286621, 0.2225378304719925, 0.012415676018241367, 0.02397072681283587, -0.09150407597490408, 1.2305399894714355, 1.796685326099396, -5.020902347564697, 0.0, 0.0, 0.6434000000000001, 2.1162437160651337, -2.1810561877443053, 45263
6444, -0.019393205642700195, 0.03290700912475586, 0.22002683579921722, 0.012205908312760399, 0.017987454568862075, -0.08665378391621177, 1.2960572242736816, 1.8062655210494996, -4.976352214813232, 0.0, 0.0, 0.6444000000000001, 1.7831604243391266, -2.197265934092645, 45288
6454, -0.019350051879882812, 0.03267335891723633, 0.21907518804073334, 0.012275039696499908, 0.010856684129001358, -0.08215935908321562, 1.3871150493621827, 1.7913483142852782, -4.928284978866578, 0.0, 0.0, 0.6454, 1.2755099545094486, -2.162998279765604, 45300
6464, -0.019202709197998047, 0.032436370849609375, 0.2187521904706955, 0.011415201396273637, 0.0036199151338054173, -0.07750124330162877, 1.4949786186218261, 1.7397809386253358, -4.876041603088379, 0.0, 0.0, 0.6464000000000001, 0.7292875578117984, -2.021086477682293, 45305
6474, -0.018314361572265625, 0.03168296813964844, 0.21775643527507782, 0.01095071149614379, -0.00019025391890131705, -0.07270700257839445, 1.5841305017471314, 1.665363597869873, -4.836411333084106, 0.0, 0.0, 0.6474000000000001, 0.33939992056565066, -1.9074785901221896, 45316
6484, -0.017844200134277344, 0.03176593780517578, 0.21798773109912872, 0.010984872480940037, -0.0029282069535797664, -0.06792156900905158, 1.6749598860740662, 1.5750996589660644, -4.802804851531983, 0.0, 0.0, 0.6484000000000001, 0.057566138585344394, -1.7547586254938308, 45315
6495, -0.01829671859741211, 0.03153729438781738, 0.2171676903963089, 0.00995948343200681, -0.008422675385487579, -0.06319942109886417, 1.8006433248519897, 1.46244478225708, -4.7570634365081785, 0.0, 0.0, 0.6495000000000001, -0.44357294982037937, -1.4402707807755375, 45324
6505, -0.017226219177246094, 0.03125572204589844, 0.21802975237369537, 0.009841508855822035, -0.013828885755663645, -0.05831468754669418, 1.9247805953025816, 1.349007397890091, -4.717443037033081, 0.0, 0.0, 0.6505000000000001, -0.941660280847033, -1.2794141418254417, 45317
6515, -0.017175674438476562, 0.030325889587402344, 0.21735738217830658, 0.013332216502327634, -0.013977353023032973, -0.052644029816950946, 1.9874932169914246, 1.2600236773490905, -4.708037042617798, 0.0, 0.0, 0.6515, -1.1242411878761571, -1.2578457008187958, 45319
6525, -0.01670098304748535, 0.030740976333618164, 0.2170967310667038, 0.01595599342002044, -0.014980289735329756, -0.04720410647197503, 2.0448516845703124, 1.1606977581977844, -4.6953390598297124, 0.0, 0.0, 0.6525000000000001, -1.2357870656014498, -1.20750114230344, 45319
6535, -0.016768217086791992, 0.030039072036743164, 0.2163877636194229, 0.018794873135269313, -0.014133768259582393, -0.042026960263949135, 2.062013363838196, 1.0610231816768647, -4.68763575553894, 0.0, 0.0, 0.6535000000000001, -1.2655356417510009, -1.126221079867098, 45325
6545, -0.01646900177001953, 0.029713153839111328, 0.2167166918516159, 0.021229529679113547, -0.011513906249425283, -0.03658060511527263, 2.0317469239234924, 0.9556952774524687, -4.681368398666382, 0.0, 0.0, 0.6545000000000001, -1.0919228663241545, -1.0424089734796063, 45319
6555, -0.01567244529724121, 0.028484582901000977, 0.21709026396274567, 0.025378008416359836, -0.007696112792719575, -0.02474800075715677, 1.8903794050216676, 0.7419744923710823, -4.659173154830933, 0.0, 0.0, 0.6555, -0.7104611967761396, -0.8600508392869255, 45273
6566, -0.01457524299621582, 0.028376102447509766, 0.21803288161754608, 0.025378008416359836, -0.007696112792719575, -0.02474800075715677, 1.8903794050216676, 0.7419744923710823, -4.659173154830933, 0.0, 0.0, 0.6566000000000001, -0.7022337721507954, -0.9329265002378903, 45296
6576, -0.01509237289428711, 0.027638912200927734, 0.21766771376132965, 0.03191076118131997, -0.01691198839324546, -0.015835903497274473, 1.760764765739441, 0.5643933797255158, -4.604015064239502, 0.0, 0.0, 0.6576, -0.9088306875294028, -0.8351458250742612, 45275
6586, -0.014046907424926758, 0.02667403221130371, 0.21870993077754974, 0.03548852757016106, -0.019694919350706185, -0.011662818532196879, 1.6527096986770633, 0.47739319745451203, -4.579346084594726, 0.0, 0.0, 0.6586000000000001, -0.879097047167223, -0.8969676389793189, 45270
6596, -0.013617515563964844, 0.026364803314208984, 0.21545131504535675, 0.03723226662288118, -0.021048329382683414, -0.007623293552981097, 1.5250220179557803, 0.37308181170374155, -4.546392583847045, 0.0, 0.0, 0.6596000000000001, -0.6962162780506732, -0.7945996774753993, 45309
6606, -0.013177633285522461, 0.02489471435546875, 0.22077251970767975, 0.035493755252120555, -0.027024770883513363, -0.004326437468580703, 1.4444039583206179, 0.24330503884702923, -4.484462547302245, 0.0, 0.0, 0.6606000000000001, -0.9064490922596443, -0.4823148688271591, 45268
6616, -0.013418436050415039, 0.024600982666015625, 0.2176314741373062, 0.033429336446256036, -0.031300543219479386, -0.0006948973624095888, 1.352700686454773, 0.11448255125433207, -4.42316026687622, 0.0, 0.0, 0.6616, -0.9294201516678756, -0.10637206871760387, 45308
6626, -0.013256549835205078, 0.023882389068603516, 0.21788857877254486, 0.0317853604708405, -0.03644776282291907, 0.0029643475241319817, 1.2810251593589785, -0.00273566599935293, -4.357434940338134, 0.0, 0.0, 0.6626000000000001, -1.0641057950231416, 0.19729412891919004, 45315
6637, -0.013297080993652344, 0.023315906524658203, 0.21745838224887848, 0.029621885327701946, -0.04386817876065593, 0.005923552273928795, 1.2459210038185122, -0.11318514700978993, -4.294612407684326, 0.0, 0.0, 0.6637, -1.365089803266567, 0.5264962719432754, 45333
6647, -0.012241363525390625, 0.02266669273376465, 0.21935035288333893, 0.027673696790963223, -0.04630364345916388, 0.008883450236553986, 1.1801666259765624, -0.21506041642278434, -4.233378267288208, 0.0, 0.0, 0.6647000000000001, -1.3820976995885186, 0.7470243503505996, 45328
6657, -0.013197898864746094, 0.021554231643676758, 0.219802126288414, 0.025825206102534068, -0.04866540129682432, 0.011939906287768483, 1.1251264333724977, -0.3052539577707648, -4.1717632770538335, 0.0, 0.0, 0.6657000000000001, -1.4518730880990782, 1.0893246081871095, 45336
6667, -0.011757850646972656, 0.020248889923095703, 0.22249244153499603, 0.025183357596390083, -0.05252494329900776, 0.016116070334216828, 1.0861459136009217, -0.37275914158672097, -4.117463016510009, 0.0, 0.0, 0.6667000000000001, -1.6375268720057197, 1.1528088615292, 45316
6677, -0.011490106582641602, 0.020203590393066406, 0.2205113023519516, 0.025399466248371017, -0.055355223329649185, 0.020885225450374197, 1.0373309135437012, -0.4164944916963577, -4.066904282569885, 0.0, 0.0, 0.6677, -1.6630018924070393, 1.2162821497853664, 45338
6688, -0.011678218841552734, 0.019302845001220703, 0.2203451246023178, 0.02498525508839939, -0.0575505986749097, 0.026092424922156278, 0.9765170216560364, -0.4512880057096481, -4.01121244430542, 0.0, 0.0, 0.6688000000000001, -1.699284199832417, 1.3249389604097712, 45339
6698, -0.011530637741088867, 0.01817631721496582, 0.21997250616550446, 0.025459509766724137, -0.05801668237003916, 0.03111684177400287, 0.8903016507625581, -0.4642210066318512, -3.9501720428466793, 0.0, 0.0, 0.6698000000000001, -1.6228935734645293, 1.3243932476552516, 45344
6708, -0.010601520538330078, 0.01744532585144043, 0.2213081568479538, 0.02561258680408463, -0.06004046404933283, 0.03562705881375653, 0.8005408704280853, -0.46672776341438293, -3.889577794075012, 0.0, 0.0, 0.6708000000000001, -1.5824009492288496, 1.2595973264896299, 45335
6718, -0.011065006256103516, 0.01707935333251953, 0.22099332511425018, 0.026239887901819487, -0.06269037965897231, 0.039921225724208045, 0.6982504993677139, -0.45484220385551455, -3.828885579109192, 0.0, 0.0, 0.6718000000000001, -1.519120999655877, 1.2477862251402227, 45343
6728, -0.01076960563659668, 0.015513896942138672, 0.22214753925800323, 0.0256680049161425, -0.06652088838189153, 0.04435483401272092, 0.5902193121612072, -0.4456196367740631, -3.7652667760849003, 0.0, 0.0, 0.6728000000000001, -1.5885679984100636, 1.2401670101463997, 45337
6738, -0.010202407836914062, 0.015270709991455078, 0.22488828003406525, 0.02649858633966893, -0.06668490746135898, 0.049606582713782314, 0.4330366127192974, -0.4198684185743332, -3.6986929893493654, 0.0, 0.0, 0.6738000000000001, -1.2938906166845494, 1.1147135391188447, 45309
6749, -0.008899927139282227, 0.014345884323120117, 0.2273799329996109, 0.027268804568656074, -0.06860706352398709, 0.05482358636936104, 0.2822184555232525, -0.3897186398506165, -3.6320337057113647, 0.0, 0.0, 0.6749, -1.1438422446364318, 0.9281454872731557, 45284
6759, -0.0094451904296875, 0.013080120086669922, 0.22516696155071259, 0.02866413414950544, -0.06945027706222391, 0.05986122933038681, 0.11875308677554129, -0.35342150926589966, -3.561245203018188, 0.0, 0.0, 0.6759000000000001, -0.9449725655248067, 0.8376889435216464, 45307
6769, -0.008539676666259766, 0.011937379837036133, 0.22714482247829437, 0.027439435400874998, -0.0683509879493879, 0.06473822325846997, -0.0523690827190876, -0.3424179911613464, -3.482177972793579, 0.0, 0.0, 0.6769000000000001, -0.6329557222058738, 0.8101808537892966, 45290
6779, -0.008168458938598633, 0.011716604232788086, 0.22764308750629425, 0.026200869768255836, -0.06809995534559637, 0.06922278097458295, -0.20551744773983957, -0.3350099414587021, -3.404613971710205, 0.0, 0.0, 0.6779000000000001, -0.3275226534474056, 0.8297786091979128, 45289
6789, -0.009035825729370117, 0.01055598258972168, 0.2295307070016861, 0.02483278417989054, -0.06906003912291801, 0.07342261245400562, -0.3304170615971089, -0.3320183217525482, -3.329420518875122, 0.0, 0.0, 0.6789000000000001, -0.20412745045230657, 0.9562876513418148, 45277
6800, -0.007571220397949219, 0.009818792343139648, 0.2313740998506546, 0.022553647952397046, -0.07151342596986868, 0.07782462219233509, -0.42091127708554266, -0.3402251422405243, -3.2562779903411867, 0.0, 0.0, 0.68, -0.1868084449441402, 0.9734980665914661, 45263
6810, -0.007778167724609375, 0.009368419647216797, 0.2316831797361374, 0.02199941878556972, -0.07152340464822543, 0.08247031562390635, -0.5067170150578022, -0.3365825444459915, -3.176575469970703, 0.0, 0.0, 0.681, -0.04520017010689993, 1.0115983401124782, 45264
6820, -0.0079193115234375, 0.008386850357055664, 0.23201407492160797, 0.02235227200513955, -0.07080466838647786, 0.08744980191446815, -0.5711090423166751, -0.32576940208673477, -3.092024564743042, 0.0, 0.0, 0.682, 0.04766819130516881, 0.9888949184366087, 45262
6830, -0.007505178451538086, 0.00717473030090332, 0.23251529037952423, 0.02152828467555442, -0.0698947874329747, 0.0927908993205823, -0.610291850566864, -0.3269868001341819, -3.0108875036239624, 0.0, 0.0, 0.683, 0.08162589416454614, 1.0029227350500092, 45256
6841, -0.0070040225982666016, 0.0063076019287109375, 0.23529280722141266, 0.021077120541129788, -0.06936512856260459, 0.09770840593442107, -0.627258712053299, -0.3215456321835518, -2.9310546874999996, 0.0, 0.0, 0.6841, 0.07907859750494266, 0.9798440561088037, 45230
6851, -0.006739139556884766, 0.006136894226074219, 0.23424606025218964, 0.020457242519327536, -0.06957808856939089, 0.10239181471531372, -0.6227846682071686, -0.31353791207075116, -2.8552520751953123, 0.0, 0.0, 0.6851, 0.05127659687164801, 0.9767941285326802, 45243
6861, -0.006140470504760742, 0.004812717437744141, 0.23730529844760895, 0.0197983283907418, -0.07096806285717162, 0.10711317663985978, -0.5974306046962738, -0.2971998512744904, -2.7824129343032835, 0.0, 0.0, 0.6861, -0.1582973711185169, 0.9339814701002543, 45216
6871, -0.005039215087890625, 0.003989219665527344, 0.2391483634710312, 0.019418575088314433, -0.0687033109192376, 0.11164771042001381, -0.6011795938014984, -0.27064743302762506, -2.7042300701141353, 0.0, 0.0, 0.6871, -0.10517466704157377, 0.8202239402799656, 45202
6882, -0.006148576736450195, 0.0032901763916015625, 0.23994393646717072, 0.01836514138726237, -0.0695279439476595, 0.11691960942190004, -0.5707291185855865, -0.24048720560967923, -2.63431396484375, 0.0, 0.0, 0.6882, -0.2533875860426529, 0.8946527098941542, 45193
6892, -0.0042612552642822266, 0.00240325927734375, 0.2420376092195511, 0.018863540883526625, -0.06942627553071434, 0.12257140636911494, -0.5508527725934983, -0.1853023525327444, -2.560014343261719, 0.0, 0.0, 0.6892, -0.3523733967821496, 0.6250453818247571, 45170
6902, -0.004843711853027344, 0.001657247543334961, 0.24452804028987885, 0.019050439115366705, -0.07109835871061898, 0.12795037569173295, -0.5173073440790177, -0.12518334947526455, -2.4902256011962893, 0.0, 0.0, 0.6902, -0.5501873086158817, 0.5431887770591646, 45144
6912, -0.005117893218994141, 0.0013337135314941406, 0.24623240530490875, 0.018202447219406673, -0.07265439122900824, 0.13318581572859345, -0.4919840544462204, -0.070368617400527, -2.4237606287002564, 0.0, 0.0, 0.6912, -0.6952681671753358, 0.4968721679576469, 45126
6923, -0.003851652145385742, 0.00014352798461914062, 0.24633847177028656, 0.016107639531827048, -0.07343890047814752, 0.13809785934407814, -0.484191146492958, -0.02553136758506299, -2.360436964035034, 0.0, 0.0, 0.6923, -0.8348938122764232, 0.413023824094317, 45126
6933, -0.003920793533325195, 0.0001895427703857422, 0.24814771115779877, 0.015534189215956447, -0.07223499745918693, 0.14255891623250438, -0.5062274366617203, 0.03252953179180621, -2.2924732089042665, 0.0, 0.0, 0.6933, -0.7322270000015818, 0.33175678928537305, 45113
6943, -0.003748178482055664, -0.001636505126953125, 0.25077642500400543, 0.014679539782265704, -0.07079310112288965, 0.14685897412576124, -0.5375789791345597, 0.08236545808613299, -2.22605996131897, 0.0, 0.0, 0.6943, -0.7397684611768426, 0.2617520872530731, 45092
6953, -0.003367900848388672, -0.002048492431640625, 0.252642884850502, 0.014926003650884947, -0.06866735409280958, 0.15124443152405323, -0.5810811072587967, 0.13539486713707446, -2.156127429008484, 0.0, 0.0, 0.6953, -0.5872677042478739, 0.11908241061422688, 45078
6963, -0.0023322105407714844, -0.0020334720611572266, 0.2536510080099106, 0.014253794751453115, -0.07030506155643361, 0.15595872263594593, -0.5879592329263688, 0.16998455710709098, -2.090470850467682, 0.0, 0.0, 0.6963, -0.6491646377857994, 0.006178097711604044, 45070
6973, -0.0034346580505371094, -0.0029807090759277344, 0.2520892471075058, 0.012770531037960234, -0.07397418231520625, 0.16097049816187414, -0.5738125234842301, 0.18326509296894072, -2.0285064816474914, 0.0, 0.0, 0.6973, -0.918124247524029, 0.13179949827655082, 45087
6984, -0.0012059211730957031, -0.00382232666015625, 0.25735126435756683, 0.013540855915476878, -0.07249505950711611, 0.1654701069683188, -0.6113216847181321, 0.20353410094976424, -1.9539278984069826, 0.0, 0.0, 0.6984, -0.8401218316978559, -0.10817241331254873, 45038
6994, -0.0008008480072021484, -0.004878997802734375, 0.26198868453502655, 0.014221899350477907, -0.07140822940409969, 0.16972671514749713, -0.6412125945091247, 0.20832518339157105, -1.8800750732421876, 0.0, 0.0, 0.6994, -0.8118214806496394, -0.1785820264613065, 44997
7004, -0.0012297630310058594, -0.005662441253662109, 0.26281772553920746, 0.015703271750048712, -0.06928873997718862, 0.17417653586401557, -0.677158135175705, 0.2093607097864151, -1.8030086040496827, 0.0, 0.0, 0.7004, -0.7041538512183632, -0.21644614356043207, 44993
7014, -0.0005426406860351562, -0.006106853485107422, 0.2652972489595413, 0.016469413513411812, -0.06846039309452948, 0.1783541882864359, -0.6949592769145966, 0.19475746303796768, -1.7285164594650269, 0.0, 0.0, 0.7014, -0.6671017071927863, -0.27337189937120376, 44974
7024, -0.000652313232421875, -0.006063938140869141, 0.2649599760770798, 0.016750215162166578, -0.06729382921355585, 0.18224731577718672, -0.7104829728603362, 0.16860209442675114, -1.6552406430244446, 0.0, 0.0, 0.7024, -0.5828741692939468, -0.22598756263952768, 44984
7034, 0.00039505958557128906, -0.007647991180419922, 0.26774995028972626, 0.016745940286112027, -0.06668816666986127, 0.18677600774230077, -0.715523076057434, 0.13485381118953227, -1.5831684470176697, 0.0, 0.0, 0.7034, -0.6666245605872746, -0.23667544026170662, 44960
7045, 0.0015342235565185547, -0.0077207088470458984, 0.27024586498737335, 0.016685508562849404, -0.06641720331656023, 0.19141270684556885, -0.7116533637046816, 0.09814567528665065, -1.5121551871299745, 0.0, 0.0, 0.7045, -0.6716127503315269, -0.24635780821738243, 44937
7055, 0.0012316703796386719, -0.008162498474121094, 0.27183379232883453, 0.015860243260425847, -0.06640354045418066, 0.19592930095082445, -0.7011493086814881, 0.054221368953585626, -1.443878924846649, 0.0, 0.0, 0.7055, -0.7291818189137439, -0.0995875676270943, 44924
7065, 0.0015056133270263672, -0.009191274642944336, 0.2738780230283737, 0.013896699754768253, -0.06282995820806131, 0.19997417585573762, -0.7229827523231507, -0.00026756264269351516, -1.3771228432655336, 0.0, 0.0, 0.7065000000000001, -0.6026519563738618, 0.07774118618482577, 44910
7075, 0.002653837203979492, -0.009312152862548828, 0.2770248204469681, 0.010535851527053481, -0.05169929588470252, 0.20776341890885094, -0.7983686089515686, -0.09045309163630007, -1.2392413079738618, 0.0, 0.0, 0.7075, 0.04541647342607632, 0.3248238316389423, 44861
7086, 0.0030965805053710938, -0.010519027709960938, 0.27982543408870697, 0.006856855828148395, -0.04624277222273337, 0.21203258018998264, -0.830639261007309, -0.14696059115231036, -1.1756156980991364, 0.0, 0.0, 0.7086000000000001, 0.26546022875596204, 0.5718019581103058, 44837
7096, 0.0031270980834960938, -0.010938167572021484, 0.2821125239133835, 0.0023815662247693597, -0.03467825641500502, 0.2159519051787658, -0.9200758099555969, -0.20820959098637104, -1.1098722040653228, 0.0, 0.0, 0.7096, 0.9383551263263987, 0.8953736685988632, 44821
7107, 0.0034143924713134766, -0.011240720748901367, 0.2845107167959213, -0.002052957696854053, -0.025201402962848257, 0.2203947592982079, -0.98798708319664, -0.26344627477228644, -1.046536284685135, 0.0, 0.0, 0.7107000000000001, 1.480840330094293, 1.1859780548798071, 44800
7117, 0.0040585994720458984, -0.012462615966796875, 0.28817467391490936, -0.00550066752691034, -0.014067036164408695, 0.2249660490384727, -1.0665138840675354, -0.3023281000554562, -0.9794231653213501, 0.0, 0.0, 0.7117, 2.051989766236467, 1.3719026821315603, 44766
7127, 0.005905866622924805, -0.012808799743652344, 0.2900245040655136, -0.007766428457593923, -0.004486349258652855, 0.22929484822894056, -1.1230351388454438, -0.3201474398374557, -0.9106078207492828, 0.0, 0.0, 0.7127, 2.5725600376450544, 1.3714953646353727, 44751
7137, 0.006341695785522461, -0.013001441955566406, 0.2923848479986191, -0.010231314030121202, 0.003462638817417716, 0.2334404130872403, -1.1559108674526215, -0.3270458847284317, -0.8439885616302489, 0.0, 0.0, 0.7137, 2.982330885647886, 1.4628627882903469, 44732
7147, 0.006789684295654297, -0.01446986198425293, 0.2973643094301224, -0.011046680990780813, 0.009691867430316303, 0.2373821850052888, -1.162258267402649, -0.30242630466818804, -0.774367693066597, 0.0, 0.0, 0.7147000000000001, 3.164986650696186, 1.414595313371134, 44688
7158, 0.006329059600830078, -0.014679431915283203, 0.2973562926054001, -0.008513964478579645, 0.014866715411408354, 0.2413667555194193, -1.1471849620342256, -0.226640634983778, -0.6972840040922165, 0.0, 0.0, 0.7158000000000001, 3.349674889126873, 1.1781633973089356, 44693
7168, 0.007358551025390625, -0.01475834846496582, 0.29906944930553436, -0.006438886168829006, 0.01851100866326943, 0.2455541453955772, -1.1038137257099152, -0.13362041041254996, -0.6240108877420425, 0.0, 0.0, 0.7168000000000001, 3.4173759881431436, 0.8177638321100086, 44680
7178, 0.008267641067504883, -0.015788793563842773, 0.30160023272037506, -0.0031689117912890815, 0.02055544128890355, 0.24938980818759682, -1.0331586211919783, -0.005808272212743757, -0.5502211704850196, 0.0, 0.0, 0.7178, 3.28624566301379, 0.34174226853604894, 44661
7188, 0.009287357330322266, -0.015805721282958984, 0.30700014531612396, 0.0019520382101002704, 0.021215615440959953, 0.2527536866538456, -0.9374699611216784, 0.1621870256960392, -0.4733557716012, 0.0, 0.0, 0.7188, 3.116733902675803, -0.30798730781735684, 44616
7199, 0.009675979614257812, -0.01678180694580078, 0.3078477829694748, 0.007599274939519662, 0.016956505136722616, 0.25658890949676677, -0.7847633853554725, 0.3572062738239765, -0.4018933102488518, 0.0, 0.0, 0.7199, 2.5359562378012988, -0.9890268530172471, 44613
7209, 0.010866880416870117, -0.017719268798828125, 0.3107692152261734, 0.01267399278824414, 0.013000217922860218, 0.26025868321432055, -0.6276541963219643, 0.5624690301716327, -0.3295958403497934, 0.0, 0.0, 0.7209, 1.9627317974171976, -1.7240569078521193, 44590
7219, 0.01068568229675293, -0.018043994903564453, 0.31230883300304413, 0.018171097778744552, 0.011206595714270375, 0.2641685190243508, -0.48548562079668045, 0.7802422113716603, -0.2658618601039052, 0.0, 0.0, 0.7219000000000001, 1.5639575477491414, -2.4016635294178794, 44580
7229, 0.011744022369384766, -0.019275903701782227, 0.31668297946453094, 0.023926092419105194, 0.009912532422580356, 0.26721093000685414, -0.348091733828187, 1.0005714185535908, -0.2031520446762443, 0.0, 0.0, 0.7229000000000001, 1.1298024486887241, -3.1885906384216933, 44547
7239, 0.012836694717407227, -0.01948714256286621, 0.32031475007534027, 0.030515006523180163, 0.00840085053320852, 0.27055687701341036, -0.21005490757524964, 1.216610308736563, -0.13675915654748677, 0.0, 0.0, 0.7239, 0.7597840981783084, -4.008614721670301, 44519
7250, 0.012938261032104492, -0.020531654357910156, 0.32172735035419464, 0.03606626704330695, 0.0068658424880617425, 0.2742110542954298, -0.07448695041239262, 1.3979450911283493, -0.07160408850759267, 0.0, 0.0, 0.7250000000000001, 0.3312970862532236, -4.638730764658943, 44511
7260, 0.014801979064941406, -0.0209043025970459, 0.3246562331914902, 0.0383234537091239, 0.006167625006341714, 0.2780764428536802, 0.04932396076619624, 1.512318629026413, -0.012020880542695516, 0.0, 0.0, 0.726, 0.014197861421490566, -5.115862015901159, 44487
7270, 0.015393733978271484, -0.022037982940673828, 0.3278249651193619, 0.039135345002925176, 0.0052242390115849625, 0.2815438943619869, 0.16962905786931518, 1.5684541940689087, 0.049220206774771215, 0.0, 0.0, 0.727, -0.36424182532508126, -5.317150513491119, 44462
7280, 0.015915632247924805, -0.02287912368774414, 0.33006031811237335, 0.04092407419429936, 0.003999967625476081, 0.28491269185960977, 0.29003124199807645, 1.5814244389533996, 0.1085339853540063, 0.0, 0.0, 0.7280000000000001, -0.7346436230984406, -5.473043343878096, 44447
7290, 0.017479658126831055, -0.023435115814208984, 0.33453409373760223, 0.04112830357084419, 0.003623556997687635, 0.28770900434442837, 0.40268444269895554, 1.5215550065040588, 0.16489282939583064, 0.0, 0.0, 0.7290000000000001, -1.0298240944164623, -5.489612678653066, 44414
7300, 0.01872706413269043, -0.02508711814880371, 0.3384966105222702, 0.04218013260056212, 0.000747740092125864, 0.28982391480428465, 0.5435082238167525, 1.4114542096853255, 0.22302372250705957, 0.0, 0.0, 0.73, -1.5781012299435373, -5.422975162101257, 44389
7311, 0.019012451171875, -0.025916099548339844, 0.3423371762037277, 0.04101859693693555, -0.0015233495586274778, 0.2913065486453565, 0.6854234617203474, 1.22709681391716, 0.2848691461607814, 0.0, 0.0, 0.7311000000000001, -2.0402184275815243, -5.036123809499226, 44370
7321, 0.019907236099243164, -0.026227951049804688, 0.34332381188869476, 0.040631711683911755, -0.0069060025351303615, 0.292548455370297, 0.8628909688442946, 1.000138735771179, 0.34313275478780264, 0.0, 0.0, 0.7321, -2.678082326491435, -4.646177205775383, 44381
