timeStamp, OTx, OTy, OTz, vex, vey, vez, roll, pitch, yaw, xr, yr, zr, roll_ref, pitch_ref, thrust
5026, -0.15876030921936035, 0.06872963905334473, 0.5419404990971088, 0.0011486230973341363, 0.00040813996861187925, -0.002006912729588957, -0.015534140402451156, 0.031785983964800826, -0.28409603238105774, 1.6679538701325214e-05, 0.008167777593301994, 0.5000166795387013, 5.172396404590381, 11.728185004007896, 39282
5036, -0.1587679386138916, 0.0683286190032959, 0.5413495190441608, 0.0012023501901755815, 0.0007397419855974243, -0.0026998486802941777, -0.01070807226933539, 0.022010555677115917, -0.2956156194210052, 3.197717740710537e-05, 0.011308769158364748, 0.5000319771774071, 5.1810966995637004, 11.836631470035634, 39290
5046, -0.15913748741149902, 0.06783127784729004, 0.5427428968250751, 0.0013748572504345368, 0.0011249121148413342, -0.0032369018034533316, -0.008356771105900407, 0.013737648539245128, -0.3076548635959625, 5.2209298652849956e-05, 0.014449314272585124, 0.5000522092986528, 5.187954885751238, 11.963642845394844, 39275
5056, -0.15827631950378418, 0.06830811500549316, 0.541459608823061, 0.0027527998567397384, 0.0016675290159731753, -0.0039016316911456455, -0.008936934778466821, 0.019350587390363213, -0.3207103252410889, 7.737570275573313e-05, 0.017589288952618926, 0.5000773757027557, 5.278471600578031, 11.915993862940118, 39290
5066, -0.1581737995147705, 0.06842100620269775, 0.5396990068256855, 0.004597307681412132, 0.001945338565330371, -0.004936691304737095, -0.012230345467105507, 0.03947830256074667, -0.33370991349220275, 0.0001074761413334957, 0.020728569237642568, 0.5001074761413336, 5.333484280893487, 11.874200793594895, 39315
5076, -0.15817523002624512, 0.06836581230163574, 0.5404240377247334, 0.006705083718293914, 0.004103702662415822, -0.006420208684690841, -0.042632134864106774, 0.08898805808275936, -0.3468275666236877, 0.00014251031730694308, 0.023867031194245703, 0.5001425103173069, 5.514610460694106, 11.769764751930275, 39314
5086, -0.15802693367004395, 0.06738197803497314, 0.539812196046114, 0.011463482106325544, 0.006871499763965655, -0.008499827198169791, -0.09572222088463604, 0.20766595434397458, -0.359402796626091, 0.00018247788490299843, 0.027004550921324474, 0.500182477884903, 5.697674839792865, 11.394956532347816, 39332
5097, -0.15794610977172852, 0.06775414943695068, 0.539238203316927, 0.017029628524995007, 0.007405652998832023, -0.010929724987388718, -0.15391744920052589, 0.40171061027795074, -0.3710572451353073, 0.00023213980433739456, 0.03045458651566704, 0.5002321398043375, 5.886540538396534, 10.83854533533418, 39353
5107, -0.157928466796875, 0.06821513175964355, 0.538793969899416, 0.027802758279587076, 0.009602478904662133, -0.014645019747722676, -0.2559279926121235, 0.7255015583708884, -0.3831981390714645, 0.0002824661522538019, 0.033589724434105364, 0.5002824661522538, 6.243902685341072, 9.789745650401178, 39382
5117, -0.15685796737670898, 0.068351149559021, 0.5377917177975178, 0.03492199504058055, 0.012691007522218547, -0.017993868427812032, -0.39904377348721026, 1.1105074414983394, -0.3979025542736053, 0.00033772451048508234, 0.03672353628773784, 0.5003377245104851, 6.698042799692894, 8.709501249414961, 39414
5127, -0.15682005882263184, 0.0684891939163208, 0.537519384175539, 0.044079564060317926, 0.015956702769220288, -0.022423629667902126, -0.5787146259099245, 1.6067066261544822, -0.41285181045532227, 0.000397914333653715, 0.03985589835903846, 0.5003979143336537, 7.231223547738188, 7.391423330926947, 39446
5137, -0.1563575267791748, 0.0684882402420044, 0.5365063436329365, 0.05204557186754334, 0.019909910356263407, -0.02643915985330771, -0.796444395557046, 2.1779967918992043, -0.4298169523477554, 0.00046303502771027905, 0.042986686987716086, 0.5004630350277103, 7.859425657938178, 5.947787657672828, 39483
5147, -0.15507721900939941, 0.0689542293548584, 0.5350703485310078, 0.06261255303570713, 0.02223199573960888, -0.03176915270960021, -1.0249701615422964, 2.8417505770921707, -0.4399852454662323, 0.0005330859499398932, 0.046115778575596705, 0.50053308594994, 8.466893774125262, 4.139815592030284, 39535
5157, -0.15458369255065918, 0.0693807601928711, 0.5345813520252705, 0.06861916719157402, 0.02612675162080607, -0.036452240128260045, -1.281372422724962, 3.5153024196624756, -0.45726545751094816, 0.0006080664089682664, 0.04924304959150175, 0.5006080664089683, 9.197613397341941, 2.580598692647018, 39571
5168, -0.15448975563049316, 0.06969070434570312, 0.5367894060909748, 0.07516775256728224, 0.029386510512376406, -0.04193063043566357, -1.5293419122695922, 4.217567294836044, -0.46963747441768644, 0.0006962376442284368, 0.052680797601949235, 0.5006962376442284, 9.871934616013029, 0.9690826569850448, 39582
5178, -0.15362310409545898, 0.06995618343353271, 0.5337340719997883, 0.08265184719443341, 0.030051657794658283, -0.04756870555072299, -1.7288253068923949, 4.913850104808807, -0.4693785578012466, 0.0007815676636888091, 0.05580384364841141, 0.5007815676636889, 10.325668094694134, -0.7313441736081506, 39654
5188, -0.15253281593322754, 0.06973731517791748, 0.5317456610500813, 0.08685914209928464, 0.02886160782109754, -0.05214056695320189, -1.8594626545906068, 5.528928458690644, -0.46470251977443694, 0.0008718247675337243, 0.05892468665467784, 0.5008718247675337, 10.519701459429823, -2.1369642084931733, 39707
5198, -0.15107131004333496, 0.07051372528076172, 0.5333704836666584, 0.09140261457307791, 0.028445852214969543, -0.0554350568836984, -1.919080626964569, 6.056883096694947, -0.44775579422712325, 0.0009670080649619717, 0.06204320341521065, 0.500967008064962, 10.681018038747295, -3.4136877520689852, 39709
5208, -0.1495041847229004, 0.07046592235565186, 0.5310147292912006, 0.0903435398687886, 0.02633633317575214, -0.056927572621252365, -1.866960349678993, 6.420635199546814, -0.4285154238343239, 0.001067116616552899, 0.06515927081630732, 0.5010671166165529, 10.480014698555266, -4.115474511521071, 39744
5218, -0.1487581729888916, 0.07117688655853271, 0.531222689896822, 0.0951065872463467, 0.024956800018692077, -0.0601612581536945, -1.7120428450405598, 6.705600214004517, -0.4130134955048561, 0.0011721494342754046, 0.0682727658409627, 0.5011721494342753, 10.163734492893054, -4.8690222117508695, 39762
5228, -0.14710617065429688, 0.07115042209625244, 0.5305595882236958, 0.09774985668839027, 0.020008553642198123, -0.06276358107180584, -1.407313836365938, 6.8410149097442625, -0.3729468256235123, 0.001282105481498097, 0.07138356557372438, 0.5012821054814981, 9.329716656233, -5.2964690251395705, 39786
5238, -0.14484786987304688, 0.07101428508758545, 0.5281830318272114, 0.10201677889211026, 0.015931953122812485, -0.0670012439651743, -0.9992779739201068, 6.874065256118774, -0.340390458703041, 0.0013969836729990637, 0.07449154720554574, 0.501396983672999, 8.321167070409532, -5.641998991895257, 39840
5249, -0.1438605785369873, 0.07184147834777832, 0.5289800055325031, 0.11223840622885824, 0.00950832680272549, -0.0761865313035228, 0.07991697713732725, 6.678005266189575, -0.2876718625426293, 0.0015290334056505261, 0.07790692565758436, 0.5015290334056506, 5.944246430930444, -5.71432002975182, 39894
5259, -0.1420891284942627, 0.07142627239227295, 0.5253097303211689, 0.11850002219565386, 0.0032414374773151967, -0.0818937787909127, 0.7390205375850202, 6.501095104217529, -0.24706123545765876, 0.0016542443516465166, 0.08100859003482087, 0.5016542443516465, 4.313056466791219, -5.701087155273903, 39974
5269, -0.14044499397277832, 0.07195651531219482, 0.5243378765881062, 0.12434829914623176, -0.0003251942386720888, -0.08730158345432396, 1.3965431921184062, 6.291816473007203, -0.23118826374411583, 0.0017843737690604877, 0.08410705633163149, 0.5017843737690605, 2.877962339762462, -5.596102804652212, 40021
5279, -0.13960957527160645, 0.07197308540344238, 0.5246642120182514, 0.13145010450520772, -0.0014723743666929974, -0.09274480525568958, 2.021192406862974, 6.082953453063964, -0.24165933057665825, 0.0019194203735675708, 0.08720220222587248, 0.5019194203735675, 1.5797234392320547, -5.490242787451845, 40054
5289, -0.13590764999389648, 0.07152533531188965, 0.520931888371706, 0.1385376539093886, -0.0012853012145349237, -0.10056558409772975, 2.592392908781767, 5.8743339538574215, -0.2705959089100361, 0.002059382832312273, 0.09029390552648364, 0.5020593828323123, 0.41249178939062725, -5.59845872464004, 40149
5300, -0.13526511192321777, 0.07088112831115723, 0.5215028412640095, 0.14490162485982302, -0.001244253843673387, -0.10857373272629048, 3.095669116824866, 5.654438495635987, -0.3027235843241215, 0.002219017698460002, 0.09369065729286224, 0.50221901769846, -0.6437225858866306, -5.424770774204372, 40198
5310, -0.13334178924560547, 0.0710989236831665, 0.518881905823946, 0.15247722513681203, -0.0026042446141121235, -0.11680304522549909, 3.5208903789520263, 5.436541271209717, -0.3438613124191761, 0.0023692988968458395, 0.09677473402543, 0.5023692988968458, -1.5476497941781826, -5.406714304157772, 40283
5320, -0.1316361427307129, 0.07185208797454834, 0.5189286358654499, 0.1585521248381243, -0.00046658558304518184, -0.12411335039209448, 3.8084746956825257, 5.182410788536073, -0.4133432023227215, 0.002524491509349913, 0.09985499025720361, 0.5025244915093499, -1.9793302311918952, -5.232467516211304, 40333
5331, -0.12990641593933105, 0.07051587104797363, 0.5159259326756, 0.16470438976329949, -0.0018737694796705506, -0.13278925822104667, 4.021784090995789, 4.8935216665267935, -0.46820034906268115, 0.0027008742368949124, 0.10323871430488547, 0.5027008742368949, -2.5845673660209263, -4.995577364150605, 40426
5342, -0.12651848793029785, 0.07008743286132812, 0.5125802643597126, 0.1680677050560571, -0.001665746379233269, -0.14065546417303113, 4.116980576515198, 4.534161615371704, -0.5309801705181598, 0.0028831958147543246, 0.10661750677389618, 0.5028831958147544, -2.8162798867384677, -4.615099370898258, 40517
5352, -0.12439155578613281, 0.07017791271209717, 0.5116881616413593, 0.17319175068766177, -0.0057693257165456185, -0.1490092119331331, 4.160782313346862, 4.137678110599518, -0.578762847930193, 0.003054094420709863, 0.10968472100336304, 0.5030540944207098, -3.1081342320448955, -4.149965661160782, 40584
5363, -0.12165236473083496, 0.0697394609451294, 0.5098568685352802, 0.17730075423369787, -0.006111982293742851, -0.15604785747314756, 4.093662405014038, 3.680266225337982, -0.6531347617506982, 0.0032477476979382303, 0.11305365065840331, 0.5032477476979382, -3.0481897569997436, -3.5640956701025854, 40653
5374, -0.11931943893432617, 0.0683220624923706, 0.5113697536289692, 0.18416608904179127, -0.008699378910462335, -0.16333847268087753, 3.9887990713119508, 3.203696423768997, -0.7237873703241349, 0.003447333294603616, 0.11641717988806986, 0.5034473332946037, -3.0921097667842625, -3.0384328619490577, 40687
5385, -0.11697268486022949, 0.06848835945129395, 0.5056599266827106, 0.18949826341313752, -0.014340337105075608, -0.17103134452468613, 3.8723937511444086, 2.680738190934062, -0.7650756359100341, 0.0036528488272131177, 0.11977514802096086, 0.5036528488272132, -3.138467844773663, -2.3524361661198188, 40802
5396, -0.11553144454956055, 0.06783783435821533, 0.5019593127071857, 0.19318406163258992, -0.021429625133468203, -0.17840070512840064, 3.7453469753265383, 2.1261365395039324, -0.7927049100399017, 0.003864291841457146, 0.12312739465131996, 0.5038642918414571, -3.293247720244116, -1.4615265425406574, 40894
5406, -0.11204767227172852, 0.06683468818664551, 0.5016065128147602, 0.1977669175718348, -0.0275248419636148, -0.1855186409661396, 3.598354649543762, 1.5857299964874982, -0.8226371765136719, 0.0040616543224609725, 0.12616979189539193, 0.504061654322461, -3.391112000370131, -0.793181696608377, 40947
5418, -0.10929131507873535, 0.06612861156463623, 0.49810676649212837, 0.2021888618136058, -0.03376830008066468, -0.19210161548021912, 3.451538968086242, 1.0726314585655927, -0.853845876455307, 0.0043049501437048, 0.12981408315561116, 0.5043049501437048, -3.4766583909108846, -0.11912648224051653, 41031
5428, -0.10792422294616699, 0.06556189060211182, 0.49657951667904854, 0.20837947590261835, -0.04023744981756785, -0.1986938177594529, 3.3085009336471556, 0.622905008122325, -0.8832992017269135, 0.00451307835023651, 0.1328453640053263, 0.5045130783502365, -3.571836942946154, 0.45001836794029787, 41094
5439, -0.10610747337341309, 0.06438100337982178, 0.49276356771588326, 0.21242005436395447, -0.04519656078938927, -0.20382826636847337, 3.1509254455566404, 0.21704777292907237, -0.9150954604148865, 0.0047476675424387715, 0.13617371093271272, 0.5047476675424387, -3.616666692228623, 0.9971173484044874, 41172
5450, -0.10243797302246094, 0.06299662590026855, 0.4893173463642597, 0.21708093605745513, -0.048967935475980384, -0.20894937867528557, 2.9780223608016967, -0.11169033236801623, -0.9420982301235199, 0.0049881711417212315, 0.1394955530196147, 0.5049881711417212, -3.59414544335656, 1.223676820413691, 41245
5462, -0.10110592842102051, 0.06306040287017822, 0.48911457136273384, 0.2195196813640545, -0.06273960168260112, -0.21900291274580452, 2.6423566937446594, -0.6101773995906115, -0.9623398959636688, 0.005257280684593024, 0.14311177555753696, 0.505257280684593, -3.604770359655575, 2.0614713257710737, 41318
5473, -0.0973055362701416, 0.060841917991638184, 0.48374055698513985, 0.21825929070917527, -0.06700902759078826, -0.2241450799519213, 2.41641058921814, -0.7832119185477496, -0.9653722345829009, 0.005510141407390867, 0.14641950422902755, 0.5055101414073908, -3.5670374665164033, 2.240023883393992, 41413
5484, -0.09606480598449707, 0.06095314025878906, 0.48243217542767525, 0.21803836049705344, -0.07055484891229345, -0.22923145727648994, 2.157114851474762, -0.8952930390834809, -0.9752256035804749, 0.00576890743164632, 0.14972023863185716, 0.5057689074316463, -3.259225425588566, 2.4388117582922773, 41463
5495, -0.0942002534866333, 0.06010878086090088, 0.4807657487690449, 0.21755699056683903, -0.07460662634746856, -0.23180657551257866, 1.8778842985630035, -0.9693906426429748, -0.9884570360183718, 0.006033575667121316, 0.1530138210942504, 0.5060335756671213, -3.008338808594173, 2.5272312040757705, 41501
5505, -0.09195947647094727, 0.05885434150695801, 0.47763173654675484, 0.21751430086685378, -0.08006535383083001, -0.23435905122343728, 1.5933642730116844, -1.0091816842556, -0.9961921453475953, 0.0062793022491395845, 0.15600164834420738, 0.5062793022491396, -2.844598868536643, 2.4984531348354886, 41554
5516, -0.08932065963745117, 0.057831645011901855, 0.4735552556812763, 0.21520263666990472, -0.0847450589905471, -0.23684971210862388, 1.288417226076126, -1.0513377249240876, -0.9881637632846832, 0.006555229506231608, 0.15928114051210637, 0.5065552295062317, -2.589785962163399, 2.548107166467237, 41617
5527, -0.08823215961456299, 0.057286977767944336, 0.47358547523617744, 0.21114048957700046, -0.08709183591985463, -0.2388373407021912, 0.9582762718200682, -1.0950892508029937, -0.9699840247631074, 0.006837049584120236, 0.1625530240277617, 0.5068370495841202, -2.1443302927904875, 2.795903364584502, 41633
5538, -0.08634018898010254, 0.05648934841156006, 0.47126810625195503, 0.20619260059516367, -0.09171879085042647, -0.23994308275834966, 0.656284511089325, -1.1377622246742247, -0.9526951372623443, 0.007124759117251078, 0.1658171425975672, 0.5071247591172511, -1.8807949417600023, 3.0219811990457948, 41668
5549, -0.08329939842224121, 0.05495345592498779, 0.4660346992313862, 0.20293231959281352, -0.0982330233262292, -0.24093841290326543, 0.38523885011672976, -1.1547135710716248, -0.9384156763553619, 0.007418354669736615, 0.16907334029883797, 0.5074183546697366, -1.8229612547264178, 3.032690405096966, 41734
5560, -0.08182525634765625, 0.05396080017089844, 0.46315180137753487, 0.20144338861185151, -0.09815325887433318, -0.24206058579968237, 0.07662515640258788, -1.1449744701385498, -0.9305711686611174, 0.007717832735397279, 0.17232146158725842, 0.5077178327353973, -1.349005991802334, 3.0241808232644387, 41776
5572, -0.08008921146392822, 0.05424094200134277, 0.4620279558002949, 0.19956646033848663, -0.09999599505524231, -0.243358847087037, -0.4392814636230469, -1.076919537782669, -0.9228907346725463, 0.008051240857341047, 0.1758554732041564, 0.508051240857341, -0.4604940999585057, 2.897794811564555, 41800
5583, -0.07691216468811035, 0.05215108394622803, 0.4575888402760029, 0.1979203412868222, -0.10107555674513026, -0.24351289363549197, -0.6527950167655945, -1.0257911264896393, -0.9156319975852967, 0.008363007083887486, 0.1790862065297733, 0.5083630070838875, -0.31456682264582114, 2.6859952244890946, 41852
5594, -0.07615137100219727, 0.051670193672180176, 0.4565434940159321, 0.1960608258854722, -0.09843345393825736, -0.24326436640079604, -0.8736513912677765, -0.9592651844024659, -0.9084762573242188, 0.008680644542372051, 0.18230838514098566, 0.508680644542372, 0.13441711722727795, 2.6321396855464325, 41866
5605, -0.07479703426361084, 0.05169343948364258, 0.45361875370144844, 0.19470130625515708, -0.09633019470731075, -0.24273994481524055, -1.0663047656416893, -0.8716941744089126, -0.904845541715622, 0.00900414943950173, 0.18552185511852562, 0.5090041494395017, 0.5381718885121476, 2.4690054962400256, 41898
5616, -0.07147717475891113, 0.05070066452026367, 0.45098428800702095, 0.19201406247084324, -0.09563452786569707, -0.24196071732790017, -1.2196646273136138, -0.7800087735056878, -0.9008094251155854, 0.009333517911913225, 0.18872646295912524, 0.5093335179119132, 0.7215674500006363, 2.211683893101547, 41925
5626, -0.0701606273651123, 0.050757527351379395, 0.4489750750362873, 0.18960125864504265, -0.09868661757877777, -0.24119973922474777, -1.3123477816581728, -0.6728972181677817, -0.9071208477020263, 0.009638028713908897, 0.19163192370932192, 0.5096380287139088, 0.6880763623992334, 2.0588712756478498, 41946
5637, -0.06885647773742676, 0.04970252513885498, 0.4459778554737568, 0.1880273298285746, -0.10135529650601537, -0.24061199758704013, -1.3849347472190856, -0.5478729657828808, -0.9193723440170288, 0.009978580303237228, 0.19481918820561825, 0.5099785803032373, 0.5476873217866719, 1.8322668465230478, 41979
5648, -0.0656508207321167, 0.048703670501708984, 0.4415317364037037, 0.18619362567980455, -0.10364952397786946, -0.23979565255288202, -1.4360096573829653, -0.418771418184042, -0.9309671044349671, 0.010324983830990009, 0.19799714644350483, 0.51032498383099, 0.38368790184196283, 1.4671460727788475, 42026
5658, -0.06426000595092773, 0.04883134365081787, 0.43954654410481453, 0.18476511965170178, -0.10477588310082739, -0.23866339277018195, -1.4737351298332215, -0.2835395775735378, -0.9294260442256927, 0.010644970777644092, 0.20087799595828387, 0.5106449707776441, 0.3288755611502566, 1.2049436871512376, 42045
5669, -0.06285643577575684, 0.047999024391174316, 0.43771718814969063, 0.1810231175386263, -0.10715136035706761, -0.2371057997032584, -1.476189363002777, -0.17022468373179434, -0.9336541891098024, 0.011002534641700035, 0.20403776653639674, 0.5110025346417, 0.07324375590073902, 1.0912488238069027, 42059
5681, -0.061528801918029785, 0.047170042991638184, 0.43627335503697395, 0.17424357336057492, -0.11032437730464031, -0.23349832797062475, -1.4343868136405944, 0.045049188286066064, -0.9445802748203278, 0.011399264327431713, 0.2074736678037494, 0.5113992643274317, -0.309043381048141, 0.9205754112177692, 42056
5692, -0.058463096618652344, 0.04659867286682129, 0.4300614781677723, 0.1716522686705504, -0.11263371888559785, -0.23253932248414821, -1.3802567243576047, 0.14752016440033913, -0.951499480009079, 0.01176903354254255, 0.21061288749293616, 0.5117690335425426, -0.6590122209074494, 0.6502127198434334, 42122
5703, -0.05719125270843506, 0.04627108573913574, 0.4317775256931782, 0.1684569408783302, -0.11136733358096579, -0.23149981575479445, -1.3444631218910217, 0.23037244156003003, -0.9505167186260223, 0.012144633314110254, 0.21374204647930642, 0.5121446333141102, -0.7917882109886578, 0.5788524436725805, 42103
5714, -0.05605447292327881, 0.04583084583282471, 0.42739294841885567, 0.1651440020880211, -0.11041889632259447, -0.23048854957305037, -1.2998488426208494, 0.29488218054175375, -0.9501688241958618, 0.01252605915664362, 0.21686099528701852, 0.5125260591566436, -0.9670759599173859, 0.5588279511367775, 42149
5724, -0.05257594585418701, 0.04517626762390137, 0.4221316762268543, 0.16175413909095906, -0.10705506645637959, -0.2292793501804168, -1.2776445150375366, 0.3393476687371731, -0.9472338914871217, 0.012877861772365107, 0.2196874178427933, 0.512877861772365, -1.0045017373220957, 0.4069176849446346, 42204
5735, -0.05115318298339844, 0.044626712799072266, 0.42119504883885384, 0.15729184838249047, -0.10048599815375604, -0.22785220294005662, -1.2869083881378174, 0.3524808511137963, -0.940623825788498, 0.013270397406731138, 0.22278646118844825, 0.5132703974067312, -0.8261679200426365, 0.5181214222100445, 42211
5747, -0.049507975578308105, 0.044867753982543945, 0.42394520714879036, 0.15171302987176138, -0.09337828612966108, -0.2264149451916747, -1.3040164351463317, 0.33318689465522766, -0.9364556789398195, 0.013705247211811211, 0.22615509323837066, 0.5137052472118112, -0.5507292874857752, 0.7278805611946236, 42179
5757, -0.047808170318603516, 0.04496312141418457, 0.4167909510433674, 0.14198070253810705, -0.08880325369615699, -0.22490327017145403, -1.3012959003448485, 0.2553643882274628, -0.9456814050674439, 0.014072901798870163, 0.22895247369522437, 0.5140729017988701, -0.4436368652669725, 1.2402366612742448, 42252
5768, -0.0457991361618042, 0.04401719570159912, 0.413495559245348, 0.13318330253126975, -0.08197621945142705, -0.22388145507757518, -1.3220889925956727, 0.16724924445152284, -0.9493903040885926, 0.014482860972967637, 0.23201914831397408, 0.5144828609729677, -0.2655498581644889, 1.7060947125288697, 42288
5779, -0.04369819164276123, 0.04459810256958008, 0.411229956895113, 0.1240966273581909, -0.07203349973326992, -0.22301209657453627, -1.3735472559928894, 0.06148265004158021, -0.9468966782093049, 0.014898618294426347, 0.23507473968075998, 0.5148986182944264, 0.22850843950636177, 2.2124943723717823, 42314
5790, -0.04108536243438721, 0.04346036911010742, 0.40576406195759773, 0.10461274776346507, -0.0507879660757751, -0.22210915289108152, -1.4863348007202148, -0.18471527993679046, -0.9414015352725983, 0.015320168798185374, 0.23811910183396956, 0.5153201687981854, 0.798439895291342, 2.6999697411942245, 42377
5803, -0.04144406318664551, 0.043457865715026855, 0.40180881693959236, 0.0955846986626136, -0.04109006594400652, -0.22176975466456691, -1.529174041748047, -0.2962850481271744, -0.9384295642375946, 0.015825826856183944, 0.24170230822576513, 0.5158258268561839, 1.6534230983877434, 4.133722456608008, 42422
5814, -0.03805577754974365, 0.04372906684875488, 0.40251224115490913, 0.08754084344513517, -0.031118283251797194, -0.2213401274992637, -1.5677095532417298, -0.38391922712326043, -0.9331611394882203, 0.01625999946166451, 0.24472166623831956, 0.5162599994616646, 2.0942587256308105, 4.458374687072916, 42420
5825, -0.034592390060424805, 0.043621063232421875, 0.3981645591557026, 0.10365792541777916, -0.023337008063229272, -0.22293023293432496, -1.5798259377479553, -0.24193553924560549, -0.8658132135868073, 0.016699948991546365, 0.2477293342162038, 0.5166999489915464, 2.3519312418415637, 3.2072353719462305, 42486
5836, -0.033840179443359375, 0.04366195201873779, 0.39755167439579964, 0.118088338164978, -0.016549358083643616, -0.22392539084063445, -1.576887571811676, -0.08658471852540969, -0.80727601647377, 0.017145670191859974, 0.2507251684870431, 0.51714567019186, 2.5433076864197846, 2.207871701012704, 42508
5847, -0.03249216079711914, 0.04332292079925537, 0.3961914964020252, 0.1345409472920737, -0.010087780776020707, -0.2250755960406545, -1.5691269636154175, 0.11920137405395509, -0.7483991354703903, 0.017597157739709435, 0.25370902594374367, 0.5175971577397094, 2.6800710813187507, 0.9707448019852101, 42539
5858, -0.029142141342163086, 0.043677687644958496, 0.3912021107971668, 0.15194517652104772, -0.003941599853700125, -0.22590169527050175, -1.5621296405792235, 0.3663968563079834, -0.6916710317134858, 0.01805440624333593, 0.2566807640513277, 0.5180544062433359, 2.8536748928484355, -0.5421660454810515, 42606
5870, -0.02803981304168701, 0.04350459575653076, 0.3891424126923084, 0.19130843561780264, 0.00841859178618817, -0.228100044379042, -1.556331670284271, 0.9815203338861467, -0.581789568066597, 0.018559786720706184, 0.2599086713103548, 0.5185597867207061, 3.275003633321155, -3.6301347694005957, 42652
5882, -0.023915886878967285, 0.043784379959106445, 0.385942954570055, 0.20981554674229116, 0.007753392765011241, -0.2280617305873651, -1.4908105134963987, 1.2982789129018781, -0.5481281608343124, 0.019072009529177647, 0.2631218031117656, 0.5190720095291776, 3.0095455276548995, -5.391430184566167, 42696
5893, -0.02263820171356201, 0.04355669021606445, 0.3837803192436695, 0.22751668892023277, 0.010382357565470974, -0.22850700839453042, -1.4447145819664002, 1.6004004746675493, -0.5100293010473251, 0.01954755168566885, 0.26605403807919425, 0.5195475516856689, 2.8950158992439277, -6.876326363559704, 42732
5903, -0.020952343940734863, 0.04318249225616455, 0.3813278265297413, 0.2436356728987668, 0.007785408833481582, -0.22859299086332746, -1.3349115788936616, 1.8662297278642657, -0.4855494827032089, 0.01998484185209426, 0.2687086813849377, 0.5199848418520943, 2.4008182154545654, -8.247320262872439, 42768
5913, -0.019663691520690918, 0.04331207275390625, 0.3800913281738758, 0.25582597479122865, 0.0029810677047059893, -0.22746745982458602, -1.1746911354362963, 2.0552598237991333, -0.4696716099977493, 0.020426869574340645, 0.2713527165320433, 0.5204268695743406, 1.7408339874747436, -9.256145919614994, 42785
5924, -0.016522765159606934, 0.04322242736816406, 0.37647633627057076, 0.25132759590568554, 0.003894532068206788, -0.22349007633980766, -1.0249340336769819, 2.0515928030014035, -0.49877515137195594, 0.020918566737585687, 0.2742487782033353, 0.5209185667375857, 1.3471516874696154, -9.252642509508465, 42807
5934, -0.014763712882995605, 0.043584465980529785, 0.3739807493984699, 0.2453612152318358, 0.0008695517407553057, -0.2206201651553564, -0.783339862152934, 1.9607885897159574, -0.5249347597360611, 0.021370529070925903, 0.27687019695882364, 0.5213705290709258, 0.6221147611593452, -8.9072531941276, 42825
5944, -0.013482213020324707, 0.043931007385253906, 0.3739657886326313, 0.23886651385293506, -0.0018112748745539942, -0.21721831052631527, -0.48563257865607734, 1.7846695050597192, -0.5489718198776246, 0.021827215283913626, 0.2794806853530138, 0.5218272152839136, -0.20070590864826077, -8.333566011606532, 42814
5955, -0.012219905853271484, 0.043106675148010254, 0.37272705510258675, 0.23322662461108584, -0.00246054569771906, -0.2132738547494544, -0.14583245925605295, 1.5301383122801782, -0.5685939878225327, 0.02233502081833033, 0.2823394750330386, 0.5223350208183304, -1.1021082695267885, -7.642894716135857, 42812
5965, -0.009157299995422363, 0.042652249336242676, 0.3689119406044483, 0.22395699422386908, -0.004479437321862104, -0.20830048264542303, 0.2569400269538164, 1.1560226425528526, -0.5944563806056976, 0.02280161245169865, 0.28492667473596184, 0.5228016124516986, -2.1657810945718996, -6.682729087314633, 42831
5976, -0.007150173187255859, 0.042285799980163574, 0.36570339277386665, 0.21279133835372038, -0.009099464613802035, -0.20448718902240223, 0.7239701826125383, 0.6923654541373253, -0.6189499139785767, 0.023320302837245788, 0.2877595985681655, 0.5233203028372457, -3.471988066174624, -5.380454441010869, 42851
5987, -0.005416989326477051, 0.04237699508666992, 0.36362193897366524, 0.20673804819718303, -0.009283741451726404, -0.20022033498883285, 1.164534457400441, 0.22472321838140485, -0.6294973790645599, 0.02384468583157251, 0.2905787764998299, 0.5238446858315725, -4.489007800070714, -4.286299906354437, 42856
5998, -0.002685070037841797, 0.04185903072357178, 0.3596467263996601, 0.20171245559553405, -0.009041101708589485, -0.19809702829829512, 1.5966290790587665, -0.2672904029488563, -0.6323881328105927, 0.024374755172387297, 0.29338407386250365, 0.5243747551723873, -5.51656917701285, -3.266408827566252, 42896
6010, -0.002118349075317383, 0.04210233688354492, 0.3611631877720356, 0.19920416100893476, -0.0053288718662200234, -0.19546420305697346, 2.30440141223371, -1.1845705524086951, -0.6287930727005004, 0.024959490449614097, 0.29642841008052956, 0.5249594904496141, -6.875793424627723, -1.359472982659413, 42876
6021, -0.00028336048126220703, 0.04161107540130615, 0.35949118807911873, 0.19517978465868116, -0.0056146437449284894, -0.19427219312149008, 2.5582499980926507, -1.6292758956551552, -0.6339827299118043, 0.025501428888853817, 0.2992042521964388, 0.5255014288888538, -7.575975317381994, -0.4138045377353019, 42898
6032, 0.00299990177154541, 0.0407865047454834, 0.35380562022328377, 0.19273159876189266, 6.113012555260082e-05, -0.19168254057469308, 2.645158803462982, -2.0114276006817815, -0.6151503533124925, 0.026049033889408935, 0.30196580171563847, 0.5260490338894089, -7.6973216396635555, 0.2264775692853547, 42953
6042, 0.004391193389892578, 0.040227532386779785, 0.35150887444615364, 0.1941150968783154, 0.005112659075630469, -0.18939626213659122, 2.619405484199524, -2.294090402126312, -0.6035484820604324, 0.026551768379525276, 0.30446378759545545, 0.5265517683795253, -7.606262217147324, 0.6325723130937111, 42975
6053, 0.0057419538497924805, 0.040103912353515625, 0.3500671274960041, 0.19387615659736546, 0.007506782366246951, -0.18791624210937474, 2.497820061445236, -2.531427371501923, -0.5899089336395265, 0.027110173144306138, 0.30719768551676285, 0.5271101731443062, -7.4171667637945955, 1.0261616551026669, 42993
6064, 0.007536172866821289, 0.03860759735107422, 0.34547143056988716, 0.19566152534503564, 0.006087983053064009, -0.18656555660337995, 2.299415734410286, -2.6903609275817875, -0.5814504206180572, 0.027674225258441598, 0.3099169090054812, 0.5276742252584417, -7.35559532174202, 1.1375531207326302, 43046
6074, 0.008391261100769043, 0.038987159729003906, 0.34528179839253426, 0.20036332579748387, 0.009493479086945537, -0.18447435306181242, 1.9518143028020858, -2.7720366954803466, -0.5570242166519166, 0.028191894833176134, 0.31237608703157677, 0.5281918948331761, -6.638348820640777, 1.030768833413974, 43048
6084, 0.009724140167236328, 0.03873109817504883, 0.34381117299199104, 0.19926371408458363, 0.006881502229840227, -0.18325813397866877, 1.587364026904106, -2.8756900072097777, -0.5439443409442902, 0.02871422096343207, 0.31482293298462993, 0.5287142209634321, -6.213634225844467, 1.1990618153487949, 43069
6095, 0.01070106029510498, 0.03771483898162842, 0.34084900096058846, 0.19688956674205033, 0.00445743808864489, -0.17953190831796562, 1.168359187245369, -2.965836429595947, -0.5282661378383636, 0.029294151874301566, 0.3175001047143802, 0.5292941518743015, -5.730542595512275, 1.425449887750376, 43090
6105, 0.01110696792602539, 0.03791308403015137, 0.3430468328297138, 0.19421945400848661, 0.0008779611227250513, -0.17499292596277166, 0.7373458176851273, -3.0412742376327517, -0.520790857076645, 0.029826239936356524, 0.3199207394755893, 0.5298262399363565, -5.188263852000828, 1.6786742015471277, 43051
6115, 0.013636231422424316, 0.036330461502075195, 0.33655621483922005, 0.18867197620995646, -0.0007519381381370823, -0.1700736162454308, 0.2861745148897171, -3.138904237747192, -0.5018764793872833, 0.030362968423606473, 0.3223287443137957, 0.5303629684236064, -4.650316458768304, 1.9501460019648322, 43101
6125, 0.014003634452819824, 0.036177635192871094, 0.3355820067226887, 0.18047765388823142, -0.004691787498936813, -0.16528635511090148, -0.11764101684093474, -3.2590226650238034, -0.49115047752857205, 0.03090433203875792, 0.32472402416509183, 0.5309043320387579, -4.208280213279235, 2.548307629227487, 43094
6135, 0.01496434211730957, 0.035630106925964355, 0.33373694494366646, 0.1805290316061154, -0.007047544576762985, -0.16042908771061226, -0.502068480849266, -3.2873973846435547, -0.4739451020956039, 0.03145032543877058, 0.32710648446793045, 0.5314503254387706, -3.7625608966276864, 2.5404941632440825, 43096
6146, 0.015794873237609863, 0.03531336784362793, 0.3328903503715992, 0.1752944622057104, -0.011436867526799592, -0.15518419783193757, -0.8171035021543503, -3.360547876358032, -0.4649574339389801, 0.03205625914748256, 0.3297122719825927, 0.5320562591474826, -3.532663570830737, 2.8745259986727367, 43085
6156, 0.01729452610015869, 0.03527712821960449, 0.3296128697693348, 0.17238018806918523, -0.01420652401360134, -0.15006315060780262, -1.0969355255365372, -3.3914895772933957, -0.4509083509445191, 0.03261195750090229, 0.332067505691735, 0.5326119575009023, -3.2784901039096814, 2.9679044684789573, 43101
6166, 0.017871856689453125, 0.03465723991394043, 0.32808082178235054, 0.1708685459931999, -0.013882186336029004, -0.14548942387805028, -1.3575388431549071, -3.380633020401001, -0.4247747927904129, 0.03317226878560936, 0.3344096299443435, 0.5331722687856093, -2.9647396839594355, 2.9820807299386813, 43102
6176, 0.01896810531616211, 0.03436923027038574, 0.3262307234108448, 0.1643357674792545, -0.014029196906475975, -0.140243511972834, -1.5662586748600007, -3.3858332872390746, -0.40697523057460777, 0.03373718747155746, 0.3367385522773626, 0.5337371874715575, -2.752459544461467, 3.2207571935570787, 43103
6186, 0.019810914993286133, 0.03394615650177002, 0.3248334713280201, 0.15814202282326234, -0.01033793656626461, -0.13601378766809571, -1.7774716556072234, -3.3464542865753173, -0.37825789898633955, 0.034306707983227325, 0.33905418074892646, 0.5343067079832273, -2.369918901610453, 3.3740718080809735, 43105
6197, 0.02001059055328369, 0.03365957736968994, 0.3236195929348469, 0.15514540560314666, -0.004845800362949146, -0.1320823831968657, -1.9809064388275146, -3.2324004888534543, -0.34318034574389455, 0.03493848894483004, 0.34158590856716814, 0.5349384889448301, -1.9113084412608852, 3.2799215176426504, 43108
6207, 0.020493745803833008, 0.03345215320587158, 0.3210316486656666, 0.15042383147692515, 0.003389673132168391, -0.1291141350324524, -2.193656063079834, -3.0987825870513914, -0.29566338062286374, 0.03551765494022524, 0.3438733229979739, 0.5355176549402252, -1.303380711644732, 3.205564866994823, 43131
6217, 0.020969033241271973, 0.03349578380584717, 0.3200136311352253, 0.14895576445523662, 0.00399065299197283, -0.12462711721402542, -2.3120631217956547, -2.897448265552521, -0.3039915025234223, 0.036101405188847024, 0.3461471618987931, 0.5361014051888471, -1.216942300019616, 2.8477198576317226, 43129
6227, 0.02144181728363037, 0.03354501724243164, 0.3183489926159382, 0.14873631203391252, 0.0065238227091328725, -0.12039400207913631, -2.4396572828292844, -2.658305788040161, -0.3041629672050476, 0.03668973392931624, 0.3484073355023596, 0.5366897339293162, -1.02410418683169, 2.357658907441396, 43135
6237, 0.0216982364654541, 0.03352534770965576, 0.3171050138771534, 0.14083294414855152, 0.0054139409525441485, -0.11694776692451765, -2.5196868777275085, -2.482027554512024, -0.3347299605607986, 0.037282635355065596, 0.3506537545808892, 0.5372826353550656, -1.0998155419935118, 2.3625024594392476, 43142
6248, 0.022446513175964355, 0.03383994102478027, 0.31639130786061287, 0.1364476225376868, 0.006058951114770449, -0.11419836691254968, -2.6075342655181886, -2.2616851449012754, -0.3433323293924332, 0.03794010138954218, 0.3531088232618587, 0.5379401013895422, -1.0556402887574994, 2.081428911328826, 43148
6258, 0.022818803787231445, 0.03393685817718506, 0.3145521767437458, 0.12818460693326006, 0.005737946710557448, -0.11085063679866503, -2.6700049400329586, -2.0813650369644163, -0.36692363023757935, 0.0385425863533112, 0.3553260698212155, 0.5385425863533112, -1.1236028995560683, 2.086338942171493, 43162
6268, 0.02340829372406006, 0.03343403339385986, 0.3124757297337055, 0.11330064301700435, 0.0002551267328419369, -0.10368367250555625, -2.686536431312561, -1.7327799797058108, -0.43583862483501434, 0.039149625715455105, 0.35752928871575146, 0.5391496257154551, -1.5664371032052529, 2.046856143083768, 43153
6278, 0.023581862449645996, 0.03327000141143799, 0.3117709942162037, 0.10979351414083297, -0.001501664204762854, -0.1004352407776987, -2.6685043573379517, -1.5436992287635802, -0.46070899218320843, 0.03976121348474032, 0.35971839296615715, 0.5397612134847403, -1.882318183986685, 1.8302012226190691, 43156
6289, 0.023922324180603027, 0.033513545989990234, 0.31047292426228523, 0.10505884200500984, -0.004708878402071433, -0.09863158069020204, -2.6123719215393066, -1.3875150322914125, -0.4924278296530247, 0.04043920623574998, 0.3621100020995813, 0.5404392062357499, -2.3116037849456132, 1.7231475225296475, 43175
6299, 0.0243227481842041, 0.0340573787689209, 0.3092809207737446, 0.10058100587388014, -0.005965208562628433, -0.09709120176520396, -2.5539870500564574, -1.2495087265968323, -0.5144833028316498, 0.04106032595894282, 0.36426918496263644, 0.5410603259589428, -2.634140958469028, 1.6359681143125195, 43195
6309, 0.024475574493408203, 0.03405928611755371, 0.30725615099072456, 0.09420775391264423, -0.001993290809309764, -0.09694837087133937, -2.5355975627899165, -1.1502792239189148, -0.4998630672693253, 0.04168597523143697, 0.36641398710199796, 0.5416859752314369, -2.677820531088843, 1.7315845199918054, 43233
6319, 0.024485111236572266, 0.034776926040649414, 0.3064774461090565, 0.0874610284610373, 0.0014626033365044838, -0.09674035592249257, -2.505234146118164, -1.0726515054702759, -0.48805887699127193, 0.042316147878326715, 0.3685443238445498, 0.5423161478783267, -2.716833256294932, 1.898184399454183, 43257
6330, 0.0249478816986084, 0.035146355628967285, 0.3054788000881672, 0.0874610284610373, 0.0014626033365044838, -0.09674035592249257, -2.505234146118164, -1.0726515054702759, -0.48805887699127193, 0.0430145548629694, 0.3708708863693696, 0.5430145548629695, -2.8818401102713365, 1.874276617046778, 43285
6340, 0.02510392665863037, 0.03598439693450928, 0.3034048266708851, 0.07575060597792073, 0.009803165017337174, -0.09756129134762731, -2.4682495832443236, -0.9550199091434478, -0.4476152449846268, 0.043654206298248566, 0.372970572712091, 0.5436542062982486, -2.7017934655942386, 2.179919980352525, 43330
6351, 0.025008797645568848, 0.03644669055938721, 0.30308549478650093, 0.07083845832647168, 0.015384379145702825, -0.09828162299266867, -2.480564093589783, -0.9132884562015535, -0.4170663863420486, 0.04436302469348041, 0.37526321801835044, 0.5443630246934804, -2.580081434033733, 2.3417298816067214, 43356
6362, 0.024689316749572754, 0.03770315647125244, 0.30429913476109505, 0.06556738632308365, 0.022204769482704098, -0.09901724613904335, -2.519354748725891, -0.8910852313041687, -0.38058115541934967, 0.0450772844009002, 0.3775379374903488, 0.5450772844009002, -2.2905839119739158, 2.5759813661614026, 43367
6373, 0.026283860206604004, 0.03800606727600098, 0.2996147759258747, 0.06215266547277443, 0.029324531890643955, -0.09977553906511441, -2.575395965576172, -0.8646552741527557, -0.33588804453611376, 0.04579697689066897, 0.3797946224677051, 0.545796976890669, -2.0248159639415815, 2.5741083807134215, 43438
6384, 0.026034235954284668, 0.03832674026489258, 0.29981233552098274, 0.05702599215561028, 0.03368543000805558, -0.10014363184483699, -2.6162904024124143, -0.8657847046852112, -0.312920643389225, 0.0465220935680683, 0.38203316515152264, 0.5465220935680684, -1.915991497220501, 2.8428293947617256, 43457
6394, 0.026188135147094727, 0.03878152370452881, 0.2993389554321766, 0.052015512332134674, 0.03828826389300215, -0.09974693240020381, -2.668567252159119, -0.8718208193778991, -0.28926241695880894, 0.04718599020171105, 0.38405237064520087, 0.5471859902017111, -1.7644287956711093, 3.0863382897302505, 43478
6405, 0.027024269104003906, 0.03944528102874756, 0.2976023145020008, 0.05114425805891882, 0.04280909802659176, -0.09901344414402805, -2.7256896734237674, -0.8380446821451187, -0.2508436776697636, 0.04792143804578053, 0.3862559818389322, 0.5479214380457805, -1.5924543607616464, 3.0096295008034213, 43510
6416, 0.02710103988647461, 0.04064178466796875, 0.2953576631844044, 0.04845973267453022, 0.04711561951083778, -0.09742162404772685, -2.7802001953124997, -0.8194666057825089, -0.21816737651824952, 0.048662284706720405, 0.38844114208841884, 0.5486622847067204, -1.3966594813399091, 3.103200639100603, 43541
6427, 0.027125120162963867, 0.04089069366455078, 0.2948804683983326, 0.04661811081936948, 0.05146572941880248, -0.0957123337013337, -2.8311895608901976, -0.7856894701719285, -0.18257893584668636, 0.04940852133718476, 0.3906077470114067, 0.5494085213371848, -1.2770835754081495, 3.1321207116724623, 43554
6438, 0.02746403217315674, 0.0417180061340332, 0.2938879020512104, 0.044370891234270404, 0.05597923977232134, -0.09305986001144421, -2.8774970054626463, -0.7439019978046417, -0.15089318081736566, 0.050160139025459516, 0.392755693112006, 0.5501601390254596, -1.1171925576712571, 3.1407879832533263, 43566
6450, 0.02731919288635254, 0.04389488697052002, 0.29265834763646126, 0.04092397440498504, 0.0654184429188346, -0.08758454883030788, -2.950919008255005, -0.6033476494252682, -0.08959458661265672, 0.050986212119692176, 0.3950775061878452, 0.5509862121196922, -0.5767399395983195, 3.045385379010411, 43563
6461, 0.027519702911376953, 0.04439079761505127, 0.2918301112949848, 0.0412862949113829, 0.07322690728935463, -0.08568809552844427, -3.006428337097168, -0.48633590862154963, -0.05016222042031586, 0.051749052030266085, 0.39718610788335573, 0.5517490520302661, -0.2723054933642772, 2.795843222449453, 43578
6471, 0.027957439422607422, 0.045257568359375, 0.2914073057472706, 0.044269269899385164, 0.08163606427487317, -0.08445791329257134, -3.0624677658081056, -0.3290649704635144, 0.001062263129279017, 0.052447188356722574, 0.3990865569195502, 0.5524471883567226, 0.0877253354319333, 2.3283326334809225, 43594
6482, 0.027557730674743652, 0.048015713691711426, 0.29138459637761116, 0.04931129495325753, 0.0927181554164388, -0.08422208677223612, -3.1421030998229984, -0.1408702962100506, 0.05896494495682419, 0.05322023987547542, 0.4011588506711083, 0.5532202398754754, 0.758112068628584, 1.7673169213905282, 43612
6493, 0.028318047523498535, 0.048397183418273926, 0.28799285367131233, 0.053792710215558454, 0.1028839483507414, -0.08162270602234076, -3.205826282501221, 0.04535921886563301, 0.1101404811721295, 0.053998626931697546, 0.4032119815878236, 0.5539986269316975, 1.17783293792234, 1.150164290109808, 43650
6503, 0.02896130084991455, 0.049149513244628906, 0.2882436402142048, 0.05378638570215635, 0.1088990600608376, -0.07808792967010354, -3.2227993965148922, 0.18608384504914283, 0.13051310810260475, 0.0547108737192894, 0.40506175278779116, 0.5547108737192894, 1.3404497207905888, 0.8387136805222232, 43644
6514, 0.02741420269012451, 0.05174374580383301, 0.28587358072400093, 0.05755370100169644, 0.11512960280995296, -0.07504613671120347, -3.233510828018188, 0.36042358055710794, 0.17135108965449036, 0.05549942093531807, 0.4070780285432745, 0.5554994209353181, 1.637274389653585, 0.4502299379568658, 43669
6525, 0.029311537742614746, 0.053162574768066406, 0.2879710979759693, 0.05934469728694911, 0.12272860242030673, -0.07190871041425638, -3.24344801902771, 0.5067989327013492, 0.19853781680576504, 0.05629327647035842, 0.40907485871251176, 0.5562932764703584, 1.9082833579132406, -0.047383398818015766, 43647
6536, 0.02979099750518799, 0.05423855781555176, 0.2884227819740772, 0.061970464413090814, 0.13381864021713408, -0.06869801777611483, -3.264124536514282, 0.6495037741959094, 0.22270184489898384, 0.05709243084402127, 0.4110521479095311, 0.5570924308440213, 2.3355625319983857, -0.4710440437350837, 43642
6547, 0.029686331748962402, 0.05594134330749512, 0.2884565182030201, 0.06374495117584238, 0.14130762552920859, -0.06397252910273178, -3.2193703174591066, 0.7689479447901248, 0.24597913469187915, 0.057896874512637864, 0.41300980168180795, 0.5578968745126378, 2.513478162829792, -0.7656132347532245, 43631
6558, 0.030611157417297363, 0.05802714824676514, 0.2868647463619709, 0.06671304911298775, 0.15095075321372406, -0.05952395595252319, -3.164196252822876, 0.8832736223936081, 0.27481246888637545, 0.05870659786937338, 0.41494772651477596, 0.5587065978693734, 2.798458936861359, -1.1813269252030725, 43639
6570, 0.030912399291992188, 0.05910205841064453, 0.28688477352261543, 0.06565340781582049, 0.16292474598009823, -0.04733842023411859, -2.881711769104004, 0.9950475454330444, 0.2859465584158898, 0.0595959425384982, 0.4170392168065856, 0.5595959425384982, 2.664975933532766, -1.3598629095742696, 43580
6581, 0.0315173864364624, 0.06160593032836914, 0.2869073934853077, 0.06587086544386561, 0.16697430267427432, -0.04039163910999089, -2.673633301258087, 1.0403032064437867, 0.28964147418737407, 0.06041667392185163, 0.41893559219564125, 0.5604166739218517, 2.419878968556372, -1.4877975293977461, 43555
6591, 0.03153634071350098, 0.06290662288665771, 0.2871132381260395, 0.06573663723947759, 0.1719848311137019, -0.03502208596304523, -2.451391732692718, 1.075709044933319, 0.29329264312982556, 0.061167349054872255, 0.4206422063950367, 0.5611673490548723, 2.101696764142559, -1.5362014669293236, 43539
6602, 0.03187155723571777, 0.0643845796585083, 0.28772272542119026, 0.06453803195126645, 0.17696613618299883, -0.029454849947093346, -2.2103539288043974, 1.0941361784934998, 0.296638934314251, 0.06199809383644961, 0.4225002992396797, 0.5619980938364496, 1.7578243508351106, -1.5250356468437674, 43517
6613, 0.03185617923736572, 0.06582534313201904, 0.28639765456318855, 0.06447852258103544, 0.18087705738034504, -0.02395987699731862, -1.9477712720632552, 1.1155279278755186, 0.30897742956876756, 0.06283406932852564, 0.424338209796329, 0.5628340693285256, 1.3189463924278513, -1.5457978547076108, 43515
6624, 0.03309953212738037, 0.0682375431060791, 0.2868671603500843, 0.06474971843363314, 0.18579332486241298, -0.018595065541260686, -1.6924938946962358, 1.1329968452453614, 0.31824754029512403, 0.06367526554770614, 0.4261558502703959, 0.5636752655477062, 1.013133829878558, -1.6674419617005207, 43496
6634, 0.03326904773712158, 0.06950998306274414, 0.2879074700176716, 0.0644530062046432, 0.18639678697505924, -0.013424254318863096, -1.4044218242168427, 1.1377567291259765, 0.3313136667013168, 0.06444451131432388, 0.42779058787974006, 0.5644445113143239, 0.35899004241847005, -1.6578877208676375, 43473
6644, 0.03415536880493164, 0.07114160060882568, 0.2872249372303486, 0.06577865126630693, 0.18796491914737395, -0.009203682460184902, -1.142921038903296, 1.1486253738403323, 0.3477521538734436, 0.06521805583777401, 0.42940843704916937, 0.565218055837774, -0.17144207151409485, -1.7883363067506994, 43473
6654, 0.03369462490081787, 0.07202208042144775, 0.28846924379467964, 0.06559451283491413, 0.19018174807694302, -0.005131561322916057, -0.910916610993445, 1.1349798262119293, 0.35489742159843446, 0.06599589148348445, 0.4310093339087691, 0.5659958914834844, -0.6695456832519522, -1.7001922940582088, 43454
6665, 0.03530561923980713, 0.07485485076904297, 0.287941325455904, 0.0652559547844357, 0.19268246297140446, -0.0013688519342586764, -0.7090957807376981, 1.1083661496639252, 0.36064251661300656, 0.06685645777630628, 0.43275066512650945, 0.5668564577763062, -0.9495964804153172, -1.7330349797723632, 43456
6675, 0.03553581237792969, 0.07635462284088135, 0.28774382546544075, 0.06467636665790868, 0.1948017606015481, 0.0022761608507666647, -0.5333028132095933, 1.0662358760833741, 0.3670600682497025, 0.06764327973992246, 0.43431575721909554, 0.5676432797399225, -1.294365632801803, -1.62147975951341, 43456
6685, 0.035570740699768066, 0.07752645015716553, 0.28857745602726936, 0.060114125647313166, 0.19380595819741062, 0.006904713711903101, -0.35887050125747916, 0.9705539405345917, 0.3703704446554184, 0.06843436888981808, 0.43586370326925433, 0.5684343688898181, -1.8044921646787944, -1.2053702357719338, 43438
6695, 0.03615891933441162, 0.07872128486633301, 0.28892089799046516, 0.058370018694509154, 0.1919247323411984, 0.01069180327184273, -0.2058711478486657, 0.8871465116739273, 0.38160844147205353, 0.06922971741826278, 0.4373944421667264, 0.5692297174182628, -2.311439059937147, -0.9842985535477654, 43431
6706, 0.03644561767578125, 0.0821378231048584, 0.2913517840206623, 0.05764532429200685, 0.1908496199704228, 0.01382904843308614, -0.08802418652921914, 0.7983583569526673, 0.39922246634960173, 0.07010951101182439, 0.43905830858858, 0.5701095110118244, -2.5460957409881395, -0.7768851640757339, 43406
6716, 0.03760254383087158, 0.08321404457092285, 0.29016323760151863, 0.05350394306741222, 0.19212895283557893, 0.0167380647252931, -0.021167587675154215, 0.6623367831110955, 0.4040941774845123, 0.07091377863414611, 0.4405527165763383, 0.570913778634146, -2.7446940460075955, -0.3830355711698253, 43421
6726, 0.038453102111816406, 0.08442509174346924, 0.28937943652272224, 0.04995078141215017, 0.18972113662708373, 0.019777412665886566, 0.05350362416356802, 0.5180544778704643, 0.4240337610244751, 0.07172228116424367, 0.4420297322971932, 0.5717222811642437, -3.1188731422156866, 0.022732630651554266, 43430
6736, 0.039784908294677734, 0.08561956882476807, 0.2888067252933979, 0.04884663752091616, 0.18862896614026062, 0.023741116514580586, 0.08899237047880887, 0.38668933659791943, 0.44008153975009917, 0.07253501062252338, 0.44348929744109317, 0.5725350106225233, -3.356150718772269, 0.25411454804496025, 43431
6746, 0.03840148448944092, 0.08774685859680176, 0.2949124462902546, 0.04260891459443881, 0.1893415279509441, 0.027422172382406185, 0.07936923578381538, 0.20128728300333024, 0.4510217934846878, 0.07335195898767372, 0.44493135438690556, 0.5733519589876737, -3.3514087386101887, 1.0314354404173478, 43366
6757, 0.04094743728637695, 0.08935260772705078, 0.29079072549939156, 0.041690941547788414, 0.18883436531332454, 0.03115702935603216, 0.055914197117090225, 0.06489897519350052, 0.46000038385391234, 0.07425546540240252, 0.4464973271333041, 0.5742554654024026, -3.414054573507577, 1.1746276016104151, 43405
6767, 0.0410841703414917, 0.09065520763397217, 0.2942463345825672, 0.04065946338757537, 0.18709403536867364, 0.0351731689055906, 0.018940836191177368, -0.07027543038129808, 0.4718067824840546, 0.07508124717747833, 0.44790243238386934, 0.5750812471774783, -3.5292430194765205, 1.4993961134360596, 43364
6777, 0.04167962074279785, 0.09261453151702881, 0.2988525815308094, 0.039016461988104496, 0.18349298089171748, 0.039615600933935326, -0.022522305697202684, -0.20538614839315417, 0.4895610392093659, 0.07591122272909778, 0.4492898552133357, 0.5759112227290978, -3.672340667950298, 1.8183958513320544, 43309
6787, 0.04245603084564209, 0.09360253810882568, 0.2941313870251179, 0.03775511432924888, 0.1816991833809171, 0.04359581479240973, -0.10074204578995705, -0.3284208878874779, 0.5011915028095245, 0.07674538386573737, 0.45065954084862575, 0.5767453838657374, -3.731435514011886, 2.082512423835219, 43353
6798, 0.04387557506561279, 0.09637296199798584, 0.2939830310642719, 0.036345930257464416, 0.1810717292227234, 0.04780636393969853, -0.2085868515074253, -0.4420363500714302, 0.5053770780563355, 0.07766778563962157, 0.45214564407317787, 0.5776677856396215, -3.545381401808574, 2.286879318707005, 43348
6808, 0.043807148933410645, 0.09818398952484131, 0.29766615107655525, 0.03517359113266337, 0.18136680250969625, 0.05171510850599447, -0.34344437643885617, -0.5379952952265739, 0.5073402911424637, 0.07851070965772566, 0.4534779064319317, 0.5785107096577257, -3.3340315139957455, 2.5560187567715285, 43306
6818, 0.043581366539001465, 0.09966981410980225, 0.2991061694920063, 0.03589409322898993, 0.18159568676910093, 0.05539316459665297, -0.49195482954382896, -0.5976666659116745, 0.5062278717756271, 0.07935779360496331, 0.4547922662594182, 0.5793577936049633, -3.1226526230186855, 2.6782785962723166, 43288
6828, 0.04505467414855957, 0.10048925876617432, 0.29828788712620735, 0.04290448279599868, 0.18494606350143927, 0.06177572291770419, -0.8511649191379548, -0.611550459265709, 0.4917298585176468, 0.08020902912095806, 0.45608867166696193, 0.5802090291209581, -2.3994796942280323, 2.293788265012802, 43276
6839, 0.045095205307006836, 0.10382616519927979, 0.3015338070690632, 0.048843002219400584, 0.18605293237876624, 0.06523614096375184, -1.0344080835580827, -0.573747518658638, 0.4838012367486953, 0.08115017322223372, 0.457493919198255, 0.5811501732222337, -1.9409381814935975, 1.9628528845517117, 43241
6849, 0.046138644218444824, 0.10458612442016602, 0.2999204583466053, 0.05197771983430238, 0.18683311434476216, 0.06849842238601198, -1.214569687843323, -0.5520162001252175, 0.4827232003211975, 0.08201009963741951, 0.4587524545818913, 0.5820100996374196, -1.6946177650948708, 1.7186296860594603, 43257
6859, 0.04675114154815674, 0.10626184940338135, 0.3009348697960377, 0.05197771983430238, 0.18683311434476216, 0.06849842238601198, -1.214569687843323, -0.5520162001252175, 0.4827232003211975, 0.0828741514441726, 0.45999287920413084, 0.5828741514441727, -1.7732356138471483, 1.6939830369394158, 43268
6869, 0.046918392181396484, 0.10852646827697754, 0.3019876964390278, 0.0592594333523971, 0.18984116522581626, 0.07524097921786192, -1.5675395071506502, -0.4732249066233636, 0.4738527029752731, 0.08374232011465038, 0.4612151440951333, 0.5837423201146503, -0.9695502668817109, 1.2109786916339853, 43235
6879, 0.047261595726013184, 0.10949051380157471, 0.30242912843823433, 0.06190850022505751, 0.19102284108208595, 0.07907389843966665, -1.718336474895477, -0.43149794489145277, 0.46698056459426873, 0.08461459708037855, 0.46241920100197376, 0.5846145970803786, -0.7471012242370838, 1.0021991253373355, 43226
6890, 0.04904532432556152, 0.11230778694152832, 0.3033040352165699, 0.06410829586922065, 0.19307613453705327, 0.08246891144764228, -1.85345333814621, -0.3875126495957375, 0.4640386164188385, 0.085578836547619, 0.46372257666733063, 0.585578836547619, -0.3774936519710892, 0.7025363841926197, 43216
6901, 0.049307942390441895, 0.1145622730255127, 0.304822850972414, 0.06660856331833045, 0.1934925317489538, 0.08651524833340957, -1.9459195137023928, -0.33560990840196614, 0.45989525020122524, 0.08654802511919002, 0.4650038009102903, 0.58654802511919, -0.20894999104787262, 0.4863499712980072, 43195
6911, 0.04947364330291748, 0.11636471748352051, 0.3068533129990101, 0.06824334223368278, 0.1966344894509569, 0.09021078273169214, -2.0351539134979246, -0.2902166709303856, 0.4558514982461929, 0.08743339057782346, 0.4661492763929499, 0.5874333905778235, 0.04570896397543002, 0.3305369694898323, 43171
6923, 0.05095863342285156, 0.1197044849395752, 0.3084232993423939, 0.06401860049081476, 0.1968328871355679, 0.09549255418426689, -2.0644763827323915, -0.2970167830586434, 0.4555647164583206, 0.08850120321934701, 0.4674995513804452, 0.5885012032193471, 0.16093417305546395, 0.45028673202039654, 43142
6933, 0.05009758472442627, 0.12137019634246826, 0.3085012324154377, 0.061157813148519063, 0.19774031529636232, 0.0998758403157395, -2.0674941301345826, -0.28884212523698805, 0.4533367305994033, 0.08939551519190408, 0.4686044820883284, 0.5893955151919041, 0.13309676239854967, 0.6521872941574931, 43133
6944, 0.05141925811767578, 0.1226123571395874, 0.31109990552067757, 0.05891622832043559, 0.196474801978164, 0.10475030371809577, -2.018358969688416, -0.27186388820409774, 0.44952295422554017, 0.0903839386587772, 0.46979853705291014, 0.5903839386587773, -0.12956128532869896, 0.6463262132355908, 43096
6955, 0.05155491828918457, 0.12523484230041504, 0.3142146058380604, 0.053377116078791954, 0.19554849220766352, 0.10962352875515449, -1.9436665296554565, -0.2821362614631653, 0.44568759202957153, 0.09137725384644507, 0.4709701503543953, 0.591377253846445, -0.3242164052507166, 0.93472819597213, 43052
6965, 0.05319333076477051, 0.12845051288604736, 0.3140701539814472, 0.05020668232499834, 0.19823596501936577, 0.11326409313873488, -1.8784249305725098, -0.2667667154222727, 0.4434992998838425, 0.09228450255434661, 0.4720157320705249, 0.5922845025543466, -0.2884431680838402, 0.9514854071492579, 43051
6976, 0.053304433822631836, 0.12981534004211426, 0.31496458128094673, 0.04837520512571669, 0.20178791364934734, 0.11663915880206702, -1.8051118850708006, -0.23644672408699988, 0.4410885453224182, 0.09328712349251583, 0.473144347690336, 0.5932871234925159, -0.36570945179430947, 0.9904875951844654, 43041
6986, 0.05395650863647461, 0.13167881965637207, 0.31622885540127754, 0.04835950824631878, 0.20449549106702253, 0.12013680929841415, -1.7165594935417177, -0.18864435777068136, 0.4368009984493256, 0.09420281218439641, 0.47415075042563265, 0.5942028121843964, -0.47468209488297275, 0.8712665745401478, 43026
6997, 0.0541154146194458, 0.1338590383529663, 0.3181923218071461, 0.0468755235541036, 0.207725806152181, 0.12415530299313458, -1.6335965991020203, -0.15519718974828722, 0.4318691402673721, 0.09521469523419374, 0.47523617187484235, 0.5952146952341937, -0.5244117793188232, 0.885158193072651, 43000
7007, 0.05543029308319092, 0.13744473457336426, 0.31852399185299873, 0.04773550827703445, 0.2110116896534425, 0.12806298541075548, -1.5574180841445922, -0.10345693975687026, 0.42879915535449986, 0.09613878405488846, 0.4762032204173115, 0.5961387840548884, -0.45258705655336745, 0.6689743834071538, 42992
7017, 0.05605757236480713, 0.13936853408813477, 0.32079895213246346, 0.04945463050982937, 0.21381332641785575, 0.13198386848620017, -1.486447620391846, -0.0449814960360527, 0.4261135786771774, 0.09706685882273935, 0.4771514692720292, 0.5970668588227394, -0.5152305931371559, 0.4509255779745259, 42963
7027, 0.05597245693206787, 0.1414090394973755, 0.322108943015337, 0.056210467311724494, 0.21782691598602757, 0.13479641074798024, -1.4384804368019106, 0.05548986941576004, 0.42713536918163303, 0.09799891037802283, 0.4780808810037542, 0.5979989103780228, -0.4671587273149856, -0.029143469472943148, 42952
7038, 0.056043028831481934, 0.1437913179397583, 0.3243591673672199, 0.0614609075681787, 0.22240099173546848, 0.1373502621863804, -1.4101018905639648, 0.13702067881822586, 0.4276410788297653, 0.09902874929817695, 0.4790814332624143, 0.599028749298177, -0.32834437572023517, -0.4132772540660114, 42933
7048, 0.05786263942718506, 0.14777624607086182, 0.3266306109726429, 0.06260486879679446, 0.22790777297924555, 0.14461589154916035, -1.3553143382072448, 0.19909939765930174, 0.429266145825386, 0.0999691221176805, 0.4799711684940759, 0.5999691221176805, -0.07846222664674579, -0.699600709131969, 42882
7058, 0.05806314945220947, 0.14937305450439453, 0.32747792080044746, 0.06555886288798471, 0.2287114667427096, 0.14902019400404898, -1.3200470685958863, 0.24073323346674444, 0.4287115901708603, 0.1009134430804498, 0.48084195528584756, 0.6009134430804498, -0.18301799523361006, -0.9085349710373449, 42865
7068, 0.05854487419128418, 0.1514047384262085, 0.3299449272453785, 0.06842465684272536, 0.2324711594585248, 0.15232067708193628, -1.3130055665969849, 0.27248742058873177, 0.4250051468610763, 0.10186170286641816, 0.48169375926055785, 0.6018617028664182, -0.0625403002123433, -1.1143771514734502, 42838
7079, 0.05923271179199219, 0.15372872352600098, 0.3315938599407673, 0.07120226957944341, 0.2363733354904578, 0.15533400693142674, -1.304131555557251, 0.29453486427664755, 0.4230941593647003, 0.10290932680072418, 0.48260877836669197, 0.6029093268007242, 0.08331882524027853, -1.3119720892891311, 42822
7089, 0.05976426601409912, 0.15777802467346191, 0.3346344716846943, 0.07460946392443235, 0.23851353685437765, 0.159060640990876, -1.2694427251815796, 0.3113486394286155, 0.4215084642171859, 0.10386582760577295, 0.48342060986325, 0.6038658276057729, 0.2264007050871277, -1.5163966406789235, 42786
7099, 0.06055343151092529, 0.15950632095336914, 0.335707176476717, 0.0753970765048873, 0.24159630574145763, 0.16249014317694893, -1.2298265635967256, 0.29392234086990354, 0.41903145909309386, 0.10482623809517727, 0.4842133567418791, 0.6048262380951772, 0.23186696756162783, -1.5512162106285625, 42773
